name,ribbonType,latitude,longitude,address,phone
삼원가든,RIBBON_THREE,37.52494,127.0326,서울특별시 강남구 언주로 835 ,02-548-3030
고료리켄,RIBBON_THREE,37.52300901428518,127.03480609700759,서울특별시 강남구 언주로152길 15-3 2층,02-511-7809
스와니예,RIBBON_THREE,37.5195101291255,127.019106035326,서울특별시 강남구 강남대로 652 신사스퀘어 2층,02-3477-9386
쵸이닷,RIBBON_THREE,37.524456,127.046528,서울특별시 강남구 도산대로 457 앙스돔빌딩 3층,02-518-0318
미피아체,RIBBON_THREE,37.5214688685552,127.044872674794,서울특별시 강남구 도산대로70길 34 ,02-516-6317
정식당,RIBBON_THREE,37.52562,127.0411,서울특별시 강남구 선릉로158길 11 ,02-517-4654 
코자차,RIBBON_THREE,37.5208683828468,127.055215316615,서울특별시 강남구 학동로97길 17 ,010-9023-7771 
알라프리마,RIBBON_THREE,37.513525,127.026005,서울특별시 강남구 학동로17길 13 ,02-511-2555 
이타닉가든,RIBBON_THREE,37.5028813541774,127.041356540268,서울특별시 강남구 테헤란로 231 조선팰리스강남 36층,02-727-7610
코지마,RIBBON_THREE,37.525742,127.041981,서울특별시 강남구 압구정로60길 21 분더샵청담점 A동 6층,02-2056-1291 
스시마츠모토,RIBBON_THREE,37.5257986944472,127.045659927706,서울특별시 강남구 도산대로75길 24 ,02-543-4334 
세븐스도어,RIBBON_THREE,37.5224089749768,127.054313613882,서울특별시 강남구 학동로97길 41 리유빌딩 4층,010-9660-3011
라미띠에,RIBBON_THREE,37.52596462384521,127.04457274798145,서울특별시 강남구 도산대로67길 30 2층,02-546-9621 
밍글스,RIBBON_THREE,37.52537011726149,127.04416060872083,서울특별시 강남구 도산대로67길 19 힐탑빌딩 2층,02-515-7306
다이닝마,RIBBON_THREE,37.52249740233286,127.03426739117289,서울특별시 강남구 언주로152길 8 유일빌딩 2층,02-518-7400
벽제갈비,RIBBON_THREE,37.50997,127.1262,서울특별시 송파구 양재대로71길 1-4 ,02-415-5522
권숙수,RIBBON_THREE,37.524328,127.043571,서울특별시 강남구 압구정로80길 37 이에스빌딩 4층,02-542-6268 
비스트로드욘트빌,RIBBON_THREE,37.526,127.0412,서울특별시 강남구 선릉로158길 13-7 이안빌딩 1층,02-541-1550
레스쁘아뒤이부,RIBBON_THREE,37.52579,127.0404,서울특별시 강남구 선릉로152길 33 ,02-517-6034 
톡톡,RIBBON_THREE,37.522410597151854,127.05431282319448,서울특별시 강남구 학동로97길 41 리유빌딩 3층,02-542-3030
무오키,RIBBON_THREE,37.518997,127.042238,서울특별시 강남구 학동로55길 12-12 ,010-2948-4171
백리향,RIBBON_THREE,37.51982,126.9399,서울특별시 영등포구 63로 50 63한화생명빌딩 57층,02-789-5741 
파씨오네,RIBBON_THREE,37.52542,127.0367,서울특별시 강남구 언주로164길 39 2층,02-546-7719
테이블포포,RIBBON_THREE,37.49769,126.9944,서울특별시 서초구 사평대로14길 11 명빌딩 2층,02-3478-0717
봉래헌,RIBBON_THREE,37.54683,126.8186,서울특별시 강서구 방화대로 94 메이필드호텔,02-2660-9020
낙원,RIBBON_THREE,37.54683,126.8186,서울특별시 강서구 방화대로 94 메이필드호텔 1층,02-2660-9010
홍보각,RIBBON_THREE,37.5052805568865,127.028919391781,서울특별시 강남구 봉은사로 130 노보텔앰배서더강남서울 LL층,02-531-6479
기가스,RIBBON_TWO,37.5569763923852,126.978121332046,서울특별시 중구 퇴계로6가길 30 피크닉,02-3448-9929
부베트,RIBBON_TWO,37.5253215967063,127.028865132152,서울특별시 강남구 논현로 854 안다즈호텔 상업시설 1층,02-3442-7858
크레미엘,RIBBON_TWO,37.4758044816939,127.039151097456,서울특별시 서초구 양재천로21길 3 디와이빌딩,070-8260-3855
수퍼판,RIBBON_TWO,37.5244390021596,127.026839035907,서울특별시 강남구 논현로167길 15 휴에프빌딩 2층,02-515-3848
코너스톤,RIBBON_TWO,37.508579,127.064168,서울특별시 강남구 테헤란로 606 파크 하얏트 서울 2층,02-2016-1220
백곰막걸리&양조장,RIBBON_TWO,37.525897,127.037065,서울특별시 강남구 압구정로48길 39 ,010-6822-7644 
미우,RIBBON_TWO,37.5247411726121,127.019644043561,서울특별시 강남구 압구정로 113-22 미성상가 지하,02-544-7775
르빵,RIBBON_TWO,37.5072078494456,127.10818286753653,서울특별시 송파구 백제고분로41길 12 ,02-420-7004
꼼모아,RIBBON_TWO,37.5181990350542,127.038222826352,서울특별시 강남구 선릉로135길 29  SH빌딩 1층,02-6958-5330
마망갸또,RIBBON_TWO,37.52223,127.0215,서울특별시 강남구 압구정로10길 30-12 ,070-4353-5860 
오뗄두스,RIBBON_TWO,37.49953,126.9989,서울특별시 서초구 서래로10길 9 서래빌딩,02-595-5705 
합,RIBBON_TWO,37.5223173108567,127.020612195958,서울특별시 강남구 논현로175길 109 컨템포빌딩 지하 1층,010-9727-8190
스위트에삐,RIBBON_TWO,37.49826,127.0542,서울특별시 강남구 선릉로64길 23 ,02-419-3276 
밀갸또,RIBBON_TWO,37.493104,127.018143,서울특별시 서초구 서초대로58길 37 우창빌라,02-585-9997
마담타이,RIBBON_TWO,37.5195011942199,127.023667106026,서울특별시 강남구 논현로151길 55 호경빌딩 2층,02-549-7727
면서울by윤서울,RIBBON_TWO,37.5241263043193,127.038982210697,서울특별시 강남구 선릉로 805 ,02-336-3323
우오보,RIBBON_TWO,37.4819218756209,127.043796290477,서울특별시 강남구 논현로26길 8 ,02-2222-2221
미우야,RIBBON_TWO,37.47399,127.0354,서울특별시 서초구 강남대로23길 90 기정빌딩 1층,02-577-6348
솔밤,RIBBON_TWO,37.5214078159852,127.031699704012,서울특별시 강남구 도산대로37길 6 4층,070-4405-7788
명인밥상,RIBBON_TWO,37.4933167175702,127.125036887944,서울특별시 송파구 송이로 155 ,02-409-3355 
외고집설렁탕,RIBBON_TWO,37.51101489356036,127.05390190668514,서울특별시 강남구 삼성로 555 알앤텍빌딩 1층,02-567-5225 
썬더버드,RIBBON_TWO,37.52615,127.041687,서울특별시 강남구 압구정로60길 18 SG DINEHILL빌딩 1층,02-2138-1377 
류니끄,RIBBON_TWO,37.522953871348,127.036013446545,"서울특별시 강남구 도산대로45길 8-1 1, 2층",02-546-9279
쥬안,RIBBON_TWO,37.5257986944472,127.045659927706,서울특별시 강남구 도산대로75길 24 2층,02-512-4833 
레스토랑에빗,RIBBON_TWO,37.5234326965405,127.036202029788,서울특별시 강남구 도산대로45길 10-5 LS빌딩 1층,070-4231-1022 
알렌,RIBBON_TWO,37.5028813541774,127.041356540268,서울특별시 강남구 테헤란로 231 센터필드 EAST 2층 E205호,02-6985-7214
강민철레스토랑,RIBBON_TWO,37.5224534383828,127.044517830428,서울특별시 강남구 도산대로68길 18 지하 1층,02-545-2511
타마유라,RIBBON_TWO,37.503934456230404,127.00241119724721,서울특별시 서초구 신반포로 176 JW메리어트서울 2층,02-6282-6752
벽제갈비더청담,RIBBON_TWO,37.5260149160433,127.047084917624,서울특별시 강남구 도산대로81길 25 조은빌딩 1층,02-512-9593
스시마이,RIBBON_TWO,37.526317,127.033908,서울특별시 강남구 언주로168길 6 2층,02-6925-3126
임프레션,RIBBON_TWO,37.52542350241616,127.03547241127296,서울특별시 강남구 언주로164길 24 아크로스 빌딩 5층,02-6925-5522 
스시아라미즈,RIBBON_TWO,37.5028813541774,127.041356540268,서울특별시 강남구 테헤란로 231 센터필드 2층 E203호 ,02-6985-7213
세야스시,RIBBON_TWO,37.5224466309117,127.042700950101,서울특별시 강남구 선릉로148길 40-4 ,02-518-2216
엘픽,RIBBON_TWO,37.5223327912275,127.046626942892,서울특별시 강남구 도산대로78길 25 에스앤에스빌딩 1층,010-6556-9757
크랩52,RIBBON_TWO,37.510356849269,127.061023782931,서울특별시 강남구 영동대로 511 ,1644-2066
스시하네,RIBBON_TWO,37.527629770888,127.034918660011,서울특별시 강남구 언주로172길 14 ,010-9773-0887
만발,RIBBON_TWO,37.489557,126.995052,서울특별시 서초구 서초대로29길 32 ,02-535-7456
고도식,RIBBON_TWO,37.510353720640786,127.10865792523055,서울특별시 송파구 백제고분로45길 28 벤도치빌딩,02-422-8692 
봉피양(방이점),RIBBON_TWO,37.51017,127.126,서울특별시 송파구 양재대로71길 1-4 ,02-415-5527
스테이,RIBBON_TWO,37.51375250260386,127.10444609981751,서울특별시 송파구 올림픽로 300 롯데월드타워 81층,02-3213-1230
모던눌랑라이브,RIBBON_TWO,37.5138710747422,127.106364392884,서울특별시 송파구 잠실로 209 KT송파빌딩 호텔동 B1,02-3431-9666
임뻬라또,RIBBON_TWO,37.521061,127.104461,서울특별시 송파구 올림픽로37길 130 파크리오아파트상가 308호,02-420-2131 
바81,RIBBON_TWO,37.51375250260386,127.10444609981751,서울특별시 송파구 올림픽로 300 81층,02-3213-1281
필경재,RIBBON_TWO,37.48484,127.0952,서울특별시 강남구 광평로 205 ,02-445-2115 
봉우리,RIBBON_TWO,37.503003,127.038134,서울특별시 강남구 논현로94길 25-3 ,02-564-8551
고니,RIBBON_TWO,37.5213277654859,127.037670238659,서울특별시 강남구 도산대로50길 17 3층,02-517-7800
비금도,RIBBON_TWO,37.52476,127.0446,서울특별시 강남구 압구정로80길 26 노아빌딩 2층,02-512-1714
울프강스테이크하우스,RIBBON_TWO,37.52447,127.0415,서울특별시 강남구 선릉로152길 21 영인빌딩 1층,02-556-8700 
기욤,RIBBON_TWO,37.52405,127.0411,서울특별시 강남구 선릉로152길 17 인성빌딩,02-512-6701
우정,RIBBON_TWO,37.5250678429106,127.040349845762,서울특별시 강남구 도산대로55길 23 ,02-515-1808
일드청담,RIBBON_TWO,37.5246842905146,127.041890313948,서울특별시 강남구 도산대로59길 13 2층,02-545-4015
제스트,RIBBON_TWO,37.525227889754,127.040790451167,서울특별시 강남구 도산대로55길 26 하늘빌딩 1층,010-3177-8801
까사델비노,RIBBON_TWO,37.526291,127.044077,서울특별시 강남구 선릉로162길 43 유경빌딩 1층,02-542-8003 
익스퀴진,RIBBON_TWO,37.520999,127.049653,서울특별시 강남구 삼성로140길 6 라파빌딩,02-542-6921
레스토랑온,RIBBON_TWO,37.521946,127.049384,서울특별시 강남구 도산대로92길 42 ,02-547-0467 
안티트러스트,RIBBON_TWO,37.5267910728462,127.04146736746,서울특별시 강남구 선릉로162길 12 3층,02-749-2288 
텐지몽,RIBBON_TWO,37.522410597151854,127.05431282319448,서울특별시 강남구 학동로97길 41 리유빌딩 4층,010-7449-3010
오네뜨장,RIBBON_TWO,37.526074227507,127.041233246229,서울특별시 강남구 선릉로158길 13-7 이안빌딩 지하1층,02-545-1550
더라운드,RIBBON_TWO,37.522977,127.042515,서울특별시 강남구 선릉로148길 37 ,02-545-4448
필레터,RIBBON_TWO,37.5224466309117,127.042700950101,서울특별시 강남구 선릉로148길 40-4 ,02-517-0407
오와이,RIBBON_TWO,37.5222303672862,127.043259315881,서울특별시 강남구 선릉로148길 48-12 지하 1층,02-515-7250
윌로뜨,RIBBON_TWO,37.5227679418531,127.043405669306,서울특별시 강남구 선릉로148길 48 ,02-722-0689 
미토우,RIBBON_TWO,37.5221099525237,127.045055412969,서울특별시 강남구 도산대로70길 24 ,010-7286-9914
뜨락,RIBBON_TWO,37.5244,127.0555,서울특별시 강남구 영동대로142길 13-3 ,02-543-2987
무니,RIBBON_TWO,37.5229398817454,127.045484539744,서울특별시 강남구 도산대로72길 16 ,02-511-1303 
파불라,RIBBON_TWO,37.527044,127.045747,서울특별시 강남구 도산대로81길 51 루미안빌딩 1층,02-517-2852
무등산,RIBBON_TWO,37.52189,127.04,서울특별시 강남구 선릉로146길 3 승봉빌딩,02-518-4001
봉밀가,RIBBON_TWO,37.515834,127.042281,서울특별시 강남구 선릉로 664 건설빌딩,02-546-2305
스위츠플래닛,RIBBON_TWO,37.51717,127.0391,서울특별시 강남구 선릉로131길 23 ,02-541-0402 
슈치쿠,RIBBON_TWO,37.5198,126.9401,서울특별시 영등포구 63로 50 63한화생명빌딩 58층,02-789-5751 
브레드피트,RIBBON_TWO,37.5199,126.9318,서울특별시 영등포구 국제금융로 86 롯데캐슬아이비 지하1층 129호,02-782-0102 
아루히니와,RIBBON_TWO,37.521470230225,126.924971147893,서울특별시 영등포구 여의나루로 42 여의도종합상가 2층,010-7526-3903
리스토란테에오,RIBBON_TWO,37.5251913154781,126.929112756574,서울특별시 영등포구 여의대로 108 더현대 서울 6층,02-3277-0651
화해당,RIBBON_TWO,37.52708629137116,126.9169305449114,서울특별시 영등포구 국회대로62길 15 광복회관 1층,02-785-4422 
정인면옥,RIBBON_TWO,37.53071,126.9217,서울특별시 영등포구 국회대로76길 10 기독교침례회총회빌딩 1층,02-2683-2615 
소호정,RIBBON_TWO,37.473216,127.048669,서울특별시 서초구 논현로 27 ,02-579-7282 
배나무골오리집,RIBBON_TWO,37.473052,127.039139,서울특별시 서초구 마방로2길 12 보성빌딩 지하1층,02-571-5252
이수부,RIBBON_TWO,37.490921,127.037987,서울특별시 강남구 논현로57길 38 102호,02-572-0570 
미누씨,RIBBON_TWO,37.48170400540631,127.04356958699984,서울특별시 강남구 논현로26길 4 ,02-6083-8482
마누테라스,RIBBON_TWO,37.4822286276945,127.045573477903,서울특별시 강남구 양재천로 179 ,010-3099-9515
뀌쏭82,RIBBON_TWO,37.48158,127.0447,서울특별시 강남구 양재천로 167 아성빌딩 1층,02-529-3582
몽고네,RIBBON_TWO,37.525231,127.039135,서울특별시 강남구 선릉로155길 5 ,02-540-0680 
만두집,RIBBON_TWO,37.52789,127.0389,서울특별시 강남구 압구정로 338 ,02-544-3710 
이치에,RIBBON_TWO,37.52534,127.0377,서울특별시 강남구 선릉로155길 23-3 2층,070-4273-4087
스시선수,RIBBON_TWO,37.52283,127.0364,서울특별시 강남구 도산대로45길 6 호림아트센터 빌딩 2층,02-514-0812 
갓포아키,RIBBON_TWO,37.522981,127.036214,서울특별시 강남구 도산대로45길 8-3 쿠키빌딩 2층,02-540-8669 
보보식당,RIBBON_TWO,37.527861899218,127.036312210926,서울특별시 강남구 언주로174길 30 로빈명품관 1층 103호,010-4749-7436
보타르가,RIBBON_TWO,37.5267388362975,127.034999358912,서울특별시 강남구 언주로170길 16 ,010-8558-5378
한일관,RIBBON_TWO,37.52779,127.0325,서울특별시 강남구 압구정로38길 14 ,1577-9963 
오스테리아꼬또,RIBBON_TWO,37.5250892597473,127.032226965053,서울특별시 강남구 언주로165길 7-12 ,02-518-1962
스시시미즈,RIBBON_TWO,37.52294062837627,127.03449836732372,서울특별시 강남구 언주로152길 11-3 지하 1층,02-543-0887
붓처스컷(도산점),RIBBON_TWO,37.5252513808129,127.032770047864,"서울특별시 강남구 언주로 835 1, 2층",02-6952-5053
호원당,RIBBON_TWO,37.526336,127.030513,서울특별시 강남구 압구정로34길 26 ,02-511-0855
가담,RIBBON_TWO,37.5263661402159,127.030258157623,서울특별시 강남구 언주로167길 35 옥산빌딩1층,02-545-5163 
페리지,RIBBON_TWO,37.5112491980008,127.049479155493,서울특별시 강남구 봉은사로68길 6-5 1충,없음
경천애인2237,RIBBON_TWO,37.50594,127.0525,서울특별시 강남구 테헤란로 421 암천빌딩 3층,02-553-2237
황소곱창,RIBBON_TWO,37.4803175879078,126.95018578679264,서울특별시 관악구 관악로15길 39 ,02-875-7622 
갯바위,RIBBON_TWO,37.48083,126.9491,서울특별시 관악구 남부순환로216길 13 ,02-878-7728
성민양꼬치,RIBBON_TWO,37.47968,126.9547,서울특별시 관악구 관악로16길 38 ,02-888-8665 
파스타포포,RIBBON_TWO,37.49773542876355,126.99444068210096,서울특별시 서초구 사평대로14길 11 명빌딩 1층,010-2905-6832 
라씨에트,RIBBON_TWO,37.49768509612491,126.99870629466835,서울특별시 서초구 서래로6길 6 홍일빌딩 2층,02-532-1250 
라싸브어,RIBBON_TWO,37.49705,126.9985,서울특별시 서초구 서래로 24 다솜빌딩 5층,02-591-6713 
더원,RIBBON_TWO,37.51999431896053,127.05766846672014,서울특별시 강남구 영동대로 648 삼안빌딩 2층,02-3443-4848
마얘,RIBBON_TWO,37.4989604535524,126.99760965781,서울특별시 서초구 사평대로22길 14 토마소닉스빌딩,02-749-1411 
곰바위,RIBBON_TWO,37.51488,127.0588,서울특별시 강남구 영동대로115길 10 ,02-511-0068 
웨이루,RIBBON_TWO,37.509191510745374,127.0608089555861,서울특별시 강남구 테헤란로 521 34층,02-559-7620
하코네,RIBBON_TWO,37.509132,127.060851,서울특별시 강남구 테헤란로 521 그랜드인터컨티넨탈서울파르나스 1층,02-559-7623 
투뿔등심고담,RIBBON_TWO,37.509786,127.057913,서울특별시 강남구 테헤란로87길 33 융전빌딩 지하 1층,02-568-7710
시추안하우스,RIBBON_TWO,37.50964,127.0579,서울특별시 강남구 테헤란로87길 29 M타워 1층,02-508-1320
중앙해장,RIBBON_TWO,37.508245,127.065467,서울특별시 강남구 영동대로86길 17 육인빌딩,02-558-7905
주,RIBBON_TWO,37.49322,126.9893,서울특별시 서초구 동광로19길 16 복합빌딩 1층,02-3482-3374 
메종엠오,RIBBON_TWO,37.489277,126.994082,서울특별시 서초구 방배로26길 22 ,070-4239-3335
스바루,RIBBON_TWO,37.4923799714446,126.986130514897,서울특별시 서초구 방배중앙로21길 7 우승빌딩,02-596-4882
송강,RIBBON_TWO,37.48186,127.0045,서울특별시 서초구 명달로9길 5 정호빌딩,02-598-9288
흑산도홍어,RIBBON_TWO,37.4801,126.9827,서울특별시 서초구 방배천로 40-2 ,02-584-1275 
기꾸,RIBBON_TWO,37.497127,126.985225,서울특별시 서초구 동광로1길 112 롯데캐슬헤론,02-525-6530 
월화고기(보라매점),RIBBON_TWO,37.4916283438844,126.926302976249,서울특별시 관악구 보라매로3길 16 ,02-888-7592 
몰타참치,RIBBON_TWO,37.50503,127.055,서울특별시 강남구 삼성로85길 26 V&S빌딩 2층,02-508-7861
대치정육식당,RIBBON_TWO,37.502187,127.056394,서울특별시 강남구 역삼로 450 ,02-557-0883
배꼽집,RIBBON_TWO,37.510092,127.024074,서울특별시 강남구 강남대로128길 22 ,02-539-3323
늘푸른정육식당,RIBBON_TWO,37.50926,127.0241,서울특별시 강남구 강남대로124길 19 광성빌딩,02-479-2224
스시코우지,RIBBON_TWO,37.5218417619336,127.036895154956,서울특별시 강남구 도산대로 318 SB타워 어넥스B동 3층,02-541-6200
한성칼국수,RIBBON_TWO,37.5206301397046,127.036162554013,서울특별시 강남구 언주로148길 14 청호상가빌딩 가동 2층,02-544-0540 
투뿔등심,RIBBON_TWO,37.52101,127.0361,서울특별시 강남구 언주로148길 19 청호빌딩,02-3448-5646
원강,RIBBON_TWO,37.51076,127.0239,서울특별시 강남구 학동로6길 16 ,02-3445-1518 
영동장어,RIBBON_TWO,37.5203166598331,127.03533877402701,서울특별시 강남구 언주로148길 8 ,02-3448-9991
평양면옥(논현점),RIBBON_TWO,37.51892,127.0291,서울특별시 강남구 논현로150길 6 ,02-549-5378 
양출서울,RIBBON_TWO,37.5166188678736,127.032459279407,서울특별시 강남구 언주로135길 34 ,02-547-4420
빈호,RIBBON_TWO,37.518458048048,127.038022514319,서울특별시 강남구 학동로43길 38 162호,010-9677-2302
진미평양냉면,RIBBON_TWO,37.516107,127.03603,서울특별시 강남구 학동로 305-3 ,02-515-3469 
서관면옥,RIBBON_TWO,37.49398971324013,127.01726966280745,서울특별시 서초구 서초대로56길 11 ,02-521-9945
육통령 ,RIBBON_TWO,37.4887950669684,127.013660090025,서울특별시 서초구 반포대로20길 69 지온빌딩 1층,010-3942-0592
신가예촌,RIBBON_TWO,37.4849946106957,127.029112829918,서울특별시 서초구 서운로 11 서초대우디오빌 1층 106호,02-525-0986
에쌍스,RIBBON_TWO,37.4818351712773,127.01336700925,서울특별시 서초구 반포대로4길 12 석탑빌딩 1층,010-8010-5099
버드나무집,RIBBON_TWO,37.4891,127.0312,서울특별시 서초구 효령로 434 ,02-3473-4167 
더마고그릴,RIBBON_TWO,37.504147,127.004603,서울특별시 서초구 신반포로 176 JW메리어트서울 7층,02-6282-6760 
플레이버즈,RIBBON_TWO,37.503934456230404,127.00241119724721,서울특별시 서초구 신반포로 176 JW메리어트서울 2층,02-6282-6268
마루심,RIBBON_TWO,37.50186,127.0105,서울특별시 서초구 고무래로10길 10 청구빌딩 1층,02-592-8998 
김영모과자점,RIBBON_TWO,37.4889155854443,127.027749222342,서울특별시 서초구 효령로 403 서초그랑몰 102호,02-2055-1983
모트32서울,RIBBON_TWO,37.5039351769908,127.002413006799,서울특별시 서초구 신반포로 176 센트럴시티 2층,02-6282-0320
커피몽타주,RIBBON_TWO,37.52946,127.1219,서울특별시 강동구 올림픽로48길 23-12 상지빌딩,070-8262-1303
한우다이닝울릉,RIBBON_TWO,37.4955176176137,127.024530612743,서울특별시 서초구 서운로 135 ,02-581-2235 
로리스더프라임립,RIBBON_TWO,37.49778,127.0262,서울특별시 서초구 서초대로 411 GT TOWER 3층,02-590-2800 
강남진해장,RIBBON_TWO,37.49949430360649,127.02926287275582,서울특별시 강남구 테헤란로5길 11 ,02-557-2662 
대려도,RIBBON_TWO,37.493389,127.032278,서울특별시 강남구 역삼로 118 ,02-555-0550 
고래불,RIBBON_TWO,37.49624,127.0339,서울특별시 강남구 논현로79길 62 백악빌딩 1층,02-556-3677
프로간장게장,RIBBON_TWO,37.5145780257989,127.019168572867,"서울특별시 서초구 강남대로97길 7 지하1, 2층, 지상 1층",02-543-4126
듀자미,RIBBON_TWO,37.51933,127.0226,서울특별시 강남구 도산대로11길 28 ,02-3443-0030
와라쿠,RIBBON_TWO,37.5221,127.0207,서울특별시 강남구 압구정로4길 13-7 ,02-517-2292 
구스테이크528,RIBBON_TWO,37.52288,127.0206,서울특별시 강남구 압구정로 108 덕산빌딩 109호,02-511-0917 
삐아프,RIBBON_TWO,37.5223173108567,127.020612195958,서울특별시 강남구 논현로175길 109 ,02-545-0317
당옥,RIBBON_TWO,37.520066,127.020428,서울특별시 강남구 강남대로162길 22 ,02-3443-1227
소나,RIBBON_TWO,37.52066,127.0216,서울특별시 강남구 강남대로162길 40 201호,02-515-3246
현우동,RIBBON_TWO,37.517039793687886,127.02430622206757,서울특별시 강남구 논현로149길 53 래성빌딩 1층,02-515-3622 
김수사,RIBBON_TWO,37.51713,127.0232,서울특별시 강남구 도산대로 132 해정빌딩 1층,02-542-5235
왕스덕,RIBBON_TWO,37.517187824504305,127.02297603119361,서울특별시 강남구 도산대로 130 하림빌딩 1층,02-540-8524
듀윗,RIBBON_ONE,37.5003637668422,126.92671225982,서울특별시 동작구 대방동1길 10 ,02-324-2017
등촌최월선칼국수,RIBBON_ONE,37.556,126.8567,서울특별시 강서구 화곡로64길 68 ,02-3661-2744
이조보쌈,RIBBON_ONE,37.53493,126.9031,서울특별시 영등포구 당산로 244 ,02-2671-3257 
냐옹지마,RIBBON_ONE,37.5146817750863,126.890650682526,서울특별시 영등포구 도림로141다길 13-2 ,없음
청담나인,RIBBON_ONE,37.5166377998582,127.051864456444,서울특별시 강남구 삼성로 634 지하 1층,02-2002-9800
아이리스펍더블린,RIBBON_ONE,37.50203,127.0262,서울특별시 강남구 강남대로 442 흥국생명빌딩 별관 2층,02-561-3281 
파티세리소나,RIBBON_ONE,37.5497060138632,126.866308526225,서울특별시 양천구 목동중앙북로5길 34 ,02-2606-4454 
르지우,RIBBON_ONE,37.498314991796,126.998912893897,서울특별시 서초구 사평대로26길 40  리윤빌딩 1층,02-3476-7036
무슈벤자민,RIBBON_ONE,37.5040374668308,127.041004997955,서울특별시 강남구 언주로93길 10 ,02-556-2360
광평,RIBBON_ONE,37.5143594876356,127.064878819823,서울특별시 강남구 영동대로106길 45 ,02-561-9990
엔터하츠,RIBBON_ONE,37.490984,126.984195,서울특별시 서초구 동광로 11 빈센트빌딩 1층,02-6402-1080 
고모네원조콩탕황태탕,RIBBON_ONE,37.52963,127.1359,서울특별시 강동구 풍성로57길 13 ,02-485-4675
원조호수삼계탕,RIBBON_ONE,37.5026522880225,126.904472543578,서울특별시 영등포구 도림로 274-1 ,02-848-2440 
봉산옥,RIBBON_ONE,37.4833,127.0124,서울특별시 서초구 반포대로8길 5-6 조강빌딩,02-525-2282
반룡산,RIBBON_ONE,37.504473,127.055795,서울특별시 강남구 테헤란로78길 26 ,02-3446-8966
평미가,RIBBON_ONE,37.51892,126.8715,서울특별시 양천구 목동동로10길 16 ,02-2644-0721 
포리스트키친,RIBBON_ONE,37.5137519612953,127.104446890835,서울특별시 송파구 올림픽로 300 롯데월드 캐쥬얼동 29street 6층,02-3213-4626
음이터리앤베이커리,RIBBON_ONE,37.4846790484395,127.045475354701,서울특별시 강남구 논현로28길 47 정우빌딩 1층,02-572-2023
그레이그리스트밀,RIBBON_ONE,37.5207186841862,127.019955768192,서울특별시 강남구 압구정로2길 15 신사아이빌 1층,02-546-8902 
타쿠미곤,RIBBON_ONE,37.4983905097385,126.995611990694,서울특별시 서초구 사평대로18길 10 2층,02-595-1935 
옳음,RIBBON_ONE,37.524644994825,127.042678785802,서울특별시 강남구 선릉로152길 37 3층,02-549-2016 
더블유가나,RIBBON_ONE,37.5241891623529,127.037409337867,서울특별시 강남구 도산대로49길 20 2층,070-8848-4341
스시상현,RIBBON_ONE,37.5221099525237,127.045055412969,서울특별시 강남구 도산대로70길 24 ,010-7579-6943
아도르,RIBBON_ONE,37.512809780779634,127.0450942735762,서울특별시 강남구 선릉로116길 24 101호,010-2744-3921
덴푸라랩,RIBBON_ONE,37.5028813541774,127.041356540268,서울특별시 강남구 테헤란로 231 센터필드 East동 2층 202호,010-8715-1139
바이킹스워프,RIBBON_ONE,37.5137519612953,127.104446890835,서울특별시 송파구 올림픽로 300 롯데월드몰 캐주얼동 4층,1644-3210
자인뭉티기,RIBBON_ONE,37.485118,127.032125,서울특별시 서초구 강남대로37길 24-7 호원빌딩,02-597-2158
온유월식당,RIBBON_ONE,37.5060995475667,127.003407328203,서울특별시 서초구 신반포로 177 반포쇼핑타운 3동 지하 1층 20호,02-534-3608
파이브브루잉,RIBBON_ONE,37.488809874587,126.994502515981,서울특별시 서초구 서초대로27길 15 ,02-593-3578
정띠,RIBBON_ONE,37.5081533736736,127.086278321079,서울특별시 송파구 삼전로13길 36  ,010-5745-7327
비채나,RIBBON_ONE,37.51375250260386,127.10444609981751,서울특별시 송파구 올림픽로 300 ,02-3213-1261
빠아빠,RIBBON_ONE,37.509982006836,127.109492211647,서울특별시 송파구 백제고분로45길 20 신광빌딩 1층,없음
니커버커베이글,RIBBON_ONE,37.5097092982799,127.10570564968,서울특별시 송파구 석촌호수로 268 경남레이크파크 1층 109호,02-2203-8808
청와옥,RIBBON_ONE,37.515315163777615,127.11752862698826,서울특별시 송파구 위례성대로 48 반도빌딩 1층 102호,02-416-3456 
떡함지,RIBBON_ONE,37.511007,127.094003,서울특별시 송파구 올림픽로 212 갤러리아팰리스 상가 지하 104호,02-2144-6323
멜라디무어 ,RIBBON_ONE,37.5005744443873,127.107321499381,서울특별시 송파구 가락로16길 2-23 4층,010-9595-4244
늘푸른목장,RIBBON_ONE,37.509538,127.082624,서울특별시 송파구 백제고분로9길 34 ,02-3431-4520
선호커피,RIBBON_ONE,37.5040191892562,127.114496353632,서울특별시 송파구 송이로2길 4 1층 선호커피,010-6740-1305
더이탈리안클럽,RIBBON_ONE,37.5138710747422,127.106364392884,서울특별시 송파구 잠실로 209 소피텔엠버서더 서울 2층,010-3456-2928
산들해,RIBBON_ONE,37.51681,127.1131,서울특별시 송파구 위례성대로 6 2층,02-448-3457
알라딘의양고기,RIBBON_ONE,37.51008,127.0837,서울특별시 송파구 백제고분로7길 42-16 정빌딩,02-421-5534 
이월로스터스 ,RIBBON_ONE,37.5096796932223,127.11000582851,서울특별시 송파구 백제고분로45길 14 ,070-8839-1004
고든램지버거,RIBBON_ONE,37.5137519612953,127.104446890835,서울특별시 송파구 올림픽로 300 롯데월드몰 지하 1층,02-3213-4797
홈수끼,RIBBON_ONE,37.512006,127.126226,서울특별시 송파구 위례성대로 134 한스빌딩,02-417-4124
차만다,RIBBON_ONE,37.5112193646564,127.108309794125,서울특별시 송파구 오금로16길 4-15 반도빌딩 1층,02-422-0812
디저티스트,RIBBON_ONE,37.5106818395712,127.107604482119,서울특별시 송파구 송파대로48길 37 ,0507-1363-3724
하우스서울,RIBBON_ONE,37.5093823098353,127.079656267219,서울특별시 송파구 백제고분로9길 5 동남빌딩,02-6000-6722
스톤앤워터,RIBBON_ONE,37.5131208985041,127.119821871507,서울특별시 송파구 가락로 283 1층,02-6013-9593
툇마루밥상,RIBBON_ONE,37.4796683841344,127.124913859704,서울특별시 송파구 송파대로 111 파크하비오 205동 211호,02-409-6979 
자이소,RIBBON_ONE,37.5004371186721,127.124419978657,서울특별시 송파구 양재대로66길 30 삼신빌딩 1층,02-1599-6632
오발탄,RIBBON_ONE,37.50907,127.1334,서울특별시 송파구 위례성대로 206 ,02-404-0090 
소우리정육점식당,RIBBON_ONE,37.4957720180583,127.134972963035,서울특별시 송파구 오금로46길 20 102호 소우리,02-3012-3342
팔화당,RIBBON_ONE,37.4877387829749,127.120685887596,서울특별시 송파구 송파대로 201 A동 121호,02-526-8566
지리산약초장어(서울본점),RIBBON_ONE,37.4885591040326,127.104470715166,서울특별시 강남구 광평로 295 사이룩스 오피스텔 동관109호,02-3411-0999
교수마을초원복집,RIBBON_ONE,37.479473537579,127.102804582731,서울특별시 강남구 밤고개로14길 13-48 ,02-459-3347
모너트,RIBBON_ONE,37.4910941147932,127.074163955752,서울특별시 강남구 영동대로 22 상가 3동 1층 106호,070-4798-1213
커피바K,RIBBON_ONE,37.504696,127.041237,서울특별시 강남구 언주로 517 신라스테이호텔 별관 2층,02-516-1970 
루프탑클라우드,RIBBON_ONE,37.50122,127.0355,서울특별시 강남구 테헤란로25길 10 AC호텔바이메리어트서울강남 21층,02-2050-6035
502커피로스터스(역삼점),RIBBON_ONE,37.49974503859954,127.03495362076806,서울특별시 강남구 테헤란로 142 캐피탈타워 1층,02-556-0502 
류경회관,RIBBON_ONE,37.4948527051808,127.038027166994,서울특별시 강남구 논현로71길 18 신성타워 1층,02-568-5114
하트카페,RIBBON_ONE,37.4971791313312,127.039858859358,서울특별시 강남구 논현로76길 11 1층,02-556-9970
부산양곱창,RIBBON_ONE,37.50472,127.0426,서울특별시 강남구 언주로98길 8-1 ,02-554-7780
별양집,RIBBON_ONE,37.5044034043625,127.043661150546,서울특별시 강남구 테헤란로43길 17 ,02-501-2937 
지아니스나폴리,RIBBON_ONE,37.502626,127.03754,서울특별시 강남구 논현로94길 15 지하 1층,02-566-0501
싱카이,RIBBON_ONE,37.501898,127.037291,서울특별시 강남구 논현로 508 GS강남타워 B1층,02-2005-1003
이도곰탕,RIBBON_ONE,37.50335158488171,127.03843409410236,서울특별시 강남구 논현로94길 29-5 ,02-569-0524 
레드마블하우스,RIBBON_ONE,37.49664,127.0392,서울특별시 강남구 논현로 408 ,02-1644-3392 
타우너스에스프레소바,RIBBON_ONE,37.4984648733779,127.039841335692,서울특별시 강남구 테헤란로28길 41 ,0507-1373-1467
프랑세즈,RIBBON_ONE,37.507901,126.964262,서울특별시 동작구 현충로 96 ,02-825-5265 
운봉산장,RIBBON_ONE,37.50805,126.9404,서울특별시 동작구 장승배기로 118-1 ,02-815-2850 
오니바,RIBBON_ONE,37.5251927478858,127.045718384766,서울특별시 강남구 도산대로75길 15 지하 1층,02-516-3352
볼트스테이크하우스,RIBBON_ONE,37.52497,127.045,서울특별시 강남구 압구정로72길 22 ,02-544-9235
마코토,RIBBON_ONE,37.52433,127.0436,서울특별시 강남구 압구정로80길 37 에이스빌딩 2층,02-546-9218 
도멘청담,RIBBON_ONE,37.5241378103505,127.04144259491,서울특별시 강남구 도산대로57길 8 ,02-515-3369
스시스미레,RIBBON_ONE,37.5246288889829,127.040570885332,서울특별시 강남구 도산대로55길 18 ,02-547-8807
스케줄청담,RIBBON_ONE,37.524644994825,127.042678785802,서울특별시 강남구 선릉로152길 37 청담동 올리브빌딩 1층,02-548-0236
테라스룸,RIBBON_ONE,37.524644994825,127.042678785802,서울특별시 강남구 선릉로152길 37 올리브빌딩,02-516-1015
오아시스,RIBBON_ONE,37.52475,127.0406,서울특별시 강남구 도산대로55길 20 영빌딩 1층,02-548-8859
안서리베이킹랩,RIBBON_ONE,37.5222713073295,127.048064135117,서울특별시 강남구 삼성로 755 ,010-6832-5955
앨리스청담,RIBBON_ONE,37.5266775490869,127.040943739564,서울특별시 강남구 도산대로55길 47 ,02-511-8420
비플리끄,RIBBON_ONE,37.5245580941157,127.042300440704,서울특별시 강남구 선릉로152길 33 ,02-544-5288 
미미미가든,RIBBON_ONE,37.523811310561,127.041117630865,서울특별시 강남구 도산대로 417 ,02-514-8765 
버터핑거팬케익스,RIBBON_ONE,37.52428,127.0404,서울특별시 강남구 선릉로152길 11 ,02-3448-1070 
파파호,RIBBON_ONE,37.5217938336297,127.055341903929,서울특별시 강남구 영동대로137길 3 ,02-517-6885
데바스테이트,RIBBON_ONE,37.526127,127.044787,서울특별시 강남구 선릉로162길 51 ,070-7717-6100
55°와인앤다인,RIBBON_ONE,37.52672,127.0415,서울특별시 강남구 선릉로162길 12 마드레스 지하1층,02-518-5578 
르챔버,RIBBON_ONE,37.52622,127.0411,서울특별시 강남구 도산대로55길 42 ,02-6337-2014
10꼬르소꼬모카페,RIBBON_ONE,37.526878,127.042406,서울특별시 강남구 압구정로 416 트리니티 플레이스 지하 1층,02-547-3010 
정식카페,RIBBON_ONE,37.52565954993628,127.04107916345522,서울특별시 강남구 선릉로158길 11 ,02-517-4650 
첸트로,RIBBON_ONE,37.5245266756474,127.052757508654,서울특별시 강남구 도산대로 540 청담덕영빌딩 10층,02-882-6652
한상더테이블,RIBBON_ONE,37.5226041599715,127.041851367598,서울특별시 강남구 선릉로148길 28 3층,010-9211-1213
케익하우스윈,RIBBON_ONE,37.519933,127.049232,서울특별시 강남구 삼성로 719 경덕빌딩,02-546-1585
팔식당,RIBBON_ONE,37.5237373375472,127.049353121756,서울특별시 강남구 도산대로90길 7 ,02-3444-8877
트리아농,RIBBON_ONE,37.520284,127.044556,서울특별시 강남구 학동로59길 43 ,070-8129-5955
영천영화청담점,RIBBON_ONE,37.52394,127.0496,서울특별시 강남구 도산대로90길 3 상민빌딩,02-3442-0381 
이닝,RIBBON_ONE,37.522365,127.041275,"서울특별시 강남구 도산대로58길 14 이닝빌딩 1,2층",02-547-7444 
메종드조에,RIBBON_ONE,37.52331,127.049,서울특별시 강남구 도산대로90길 17 소양빌딩,02-540-1858
B3713,RIBBON_ONE,37.5185852105942,127.043420666503,서울특별시 강남구 선릉로132길 27 연당빌딩2 1층,02-3404-5299
에빠뉘,RIBBON_ONE,37.5218581526673,127.042543826804,서울특별시 강남구 선릉로146길 33 ,02-548-2020 
덱스터,RIBBON_ONE,37.52319959376904,127.04653042140113,서울특별시 강남구 삼성로149길 13 지하 1층,02-540-4761
도쿄사이카보,RIBBON_ONE,37.525707,127.052421,"서울특별시 강남구 도산대로101길 9 영명빌딩 1, 2층",02-517-0108
스코파더쉐프,RIBBON_ONE,37.52552,127.0507,서울특별시 강남구 도산대로89길 13 이림빌딩 2층,010-5659-0229
갓포호빈,RIBBON_ONE,37.525270366889934,127.05026944823656,서울특별시 강남구 압구정로79길 38 데오빌로 1층,02-549-7776 
새벽집,RIBBON_ONE,37.52548,127.0529,서울특별시 강남구 도산대로101길 6 ,02-546-5739
차이린,RIBBON_ONE,37.5146,127.0533,서울특별시 강남구 삼성로112길 10 ,02-543-2847 
로다,RIBBON_ONE,37.517540239927,127.051670182016,서울특별시 강남구 삼성로126길 6 보고재빌딩 1층,02-547-5177
싸일러청담,RIBBON_ONE,37.5271468521262,127.049491124593,서울특별시 강남구 도산대로85길 39 ,02-549-1913
제일버거 ,RIBBON_ONE,37.5263872750909,127.051257025733,서울특별시 강남구 도산대로99길 26 ,02-511-4951
구테로이테,RIBBON_ONE,37.5176953608723,127.03963018885,서울특별시 강남구 선릉로131길 16 ,02-518-1117
멘야미코,RIBBON_ONE,37.517356,127.051313,서울특별시 강남구 삼성로 642 삼성빌딩 103호,02-511-1227
에이엔아더,RIBBON_ONE,37.5162618583468,127.037439201501,서울특별시 강남구 학동로 313  1층 ,02-515-1935
옥면가,RIBBON_ONE,37.5156966686084,127.039886464663,서울특별시 강남구 학동로50길 14 1층,070-8869-5773
덕원,RIBBON_ONE,37.52225,126.912,서울특별시 영등포구 버드나루로6길 6 ,02-2634-8663 
청기와타운,RIBBON_ONE,37.5184094093552,126.908454213015,서울특별시 영등포구 영중로10길 32-4 ,02-2068-9203
또순이네,RIBBON_ONE,37.53583,126.8954,서울특별시 영등포구 선유로47길 16 오오1004빌딩,02-2672-2255
곱(문래점),RIBBON_ONE,37.5174631210953,126.896493699106,서울특별시 영등포구 당산로 34 로데오 왘 쇼핑몰,02-2633-5201
동경화로(문래점),RIBBON_ONE,37.51746186029412,126.89649437954259,서울특별시 영등포구 당산로 34 로데오 왘 쇼핑몰,02-2671-7567 
코끼리베이글,RIBBON_ONE,37.5286104254461,126.893270984521,서울특별시 영등포구 선유로 176 ,070-4184-0082
채윤희,RIBBON_ONE,37.515397466383,126.894642746351,서울특별시 영등포구 도림로128길 21 2층,070-7799-8292
당산오돌,RIBBON_ONE,37.5275625288744,126.899817341967,서울특별시 영등포구 국회대로37길 6 ,02-2068-5592
로라멘,RIBBON_ONE,37.5139946050255,126.893738701859,서울특별시 영등포구 도림로131길 17 1층,02-2677-7115 
63뷔페파빌리온,RIBBON_ONE,37.519465,126.939833,서울특별시 영등포구 63로 50 63한화생명빌딩 지하1층,02-789-5731 
워킹온더클라우드,RIBBON_ONE,37.5198,126.9401,서울특별시 영등포구 63로 50 63한화생명빌딩 59층,02-789-5904 
서글렁탕,RIBBON_ONE,37.51942,126.933,서울특별시 영등포구 여의대방로 394 우정빌딩 1층,02-780-8858 
쿠마,RIBBON_ONE,37.519724,126.931242,서울특별시 영등포구 여의대방로69길 7 충무빌딩 2층,02-2645-7222 
아이엠베이글,RIBBON_ONE,37.5202061193308,126.931800002781,서울특별시 영등포구 국제금융로 86 지하1층,070-4233-2881
가양칼국수버섯매운탕,RIBBON_ONE,37.52078,126.9311,서울특별시 영등포구 국제금융로 78 홍우빌딩 지하1층,02-784-0409 
엘리스파이,RIBBON_ONE,37.52083,126.9313,서울특별시 영등포구 국제금융로 78 홍우빌딩 1층,02-784-8243
해동복국,RIBBON_ONE,37.5210980098112,126.929780312735,서울특별시 영등포구 국제금융로8길 11 대영빌딩,02-783-6011
영의정,RIBBON_ONE,37.52106,126.9309,서울특별시 영등포구 국제금융로 72 ,02-761-0236
서궁,RIBBON_ONE,37.52020494927552,126.93180215312694,서울특별시 영등포구 국제금융로 86 롯데캐슬 아이비 지하 1층,02-780-7548 
고방채,RIBBON_ONE,37.5202190104628,126.929509648217,"서울특별시 영등포구 여의대방로65길 20 1층(여의도동, 호성빌딩)",02-780-9282
진주집,RIBBON_ONE,37.52134,126.9274,서울특별시 영등포구 국제금융로6길 33 여의도백화점 지하1층,02-780-6108 
진진만두,RIBBON_ONE,37.52018,126.9273,서울특별시 영등포구 국제금융로8길 34 오륜빌딩 3층,02-780-7867 
수정,RIBBON_ONE,37.5233085543086,126.933882068409,서울특별시 영등포구 국제금융로7길 32 장미상가2층,02-784-4745
여의도따로국밥,RIBBON_ONE,37.52143,126.9302,서울특별시 영등포구 여의대방로69길 28 유성빌딩,02-782-0047 
구마산,RIBBON_ONE,37.52142,126.9307,서울특별시 영등포구 국제금융로 70 미원빌딩 2층,02-782-3269 
대동문,RIBBON_ONE,37.52174,126.9265,서울특별시 영등포구 국제금융로6길 30 백상빌딩 2층,02-782-1780 
마마리다이닝,RIBBON_ONE,37.5251775245928,126.924876706923,서울특별시 영등포구 국제금융로 10 IFC몰 L3층 306호,02-6137-9665
렌위치,RIBBON_ONE,37.5251775245928,126.924876706923,서울특별시 영등포구 국제금융로 10 IFC몰 지하2층,02-6297-0023
스시아이,RIBBON_ONE,37.52994,126.922215,서울특별시 영등포구 국회대로76길 18 오성빌딩 지하 1층,02-782-0106 
양마니,RIBBON_ONE,37.5296057693694,126.921553019468,서울특별시 영등포구 국회대로74길 20 2층,02-761-9282
백원,RIBBON_ONE,37.529196,126.924881,서울특별시 영등포구 여의공원로 101 C.C.M.M빌딩 12층,02-784-6161 
식영정,RIBBON_ONE,37.46905469096468,127.0411612115922,서울특별시 서초구 강남대로10길 33 ,02-573-1477
참나무숯불에닭이만나는순간,RIBBON_ONE,37.4697,127.0447,서울특별시 서초구 동산로6길 37 세원빌딩,02-572-6616
바베큐랩,RIBBON_ONE,37.4759862858024,127.043337447354,서울특별시 서초구 마방로10길 18-13 1층,02-571-3380
자맛풍,RIBBON_ONE,37.484029950182,127.037560260553,서울특별시 서초구 남부순환로356길 18-5 ,02-579-7284
삼일정육식당,RIBBON_ONE,37.4758882227788,127.045346573447,서울특별시 서초구 언남17길 14 ,02-576-8592
쿠시카와,RIBBON_ONE,37.4827269349012,127.045678929685,서울특별시 강남구 논현로24길 37 ,02-579-0538
젠틀커피,RIBBON_ONE,37.48475,127.0449,서울특별시 강남구 논현로30길 41 1층,070-7737-9100
언노운다이너,RIBBON_ONE,37.48414,127.0455,서울특별시 강남구 논현로28길 42 2층,02-573-6672 
델리백,RIBBON_ONE,37.4917134802222,127.039748870748,서울특별시 강남구 도곡로 184 신호빌딩 103호,070-7756-2911
르82,RIBBON_ONE,37.481620693698794,127.04469111273866,서울특별시 강남구 양재천로 167 아성빌딩,02-575-3582 
뱃고동,RIBBON_ONE,37.52681,127.038,서울특별시 강남구 언주로172길 54 ,02-514-8008
시라카와,RIBBON_ONE,37.526968302491305,127.03962276267629,서울특별시 강남구 선릉로161길 7 ,070-4115-4769
압구정진주,RIBBON_ONE,37.5279203642126,127.037497633767,서울특별시 강남구 압구정로46길 5-10 압구정로데오스타,070-4120-8788 
코타바이뎐,RIBBON_ONE,37.5253756052581,127.037683021073,서울특별시 강남구 선릉로155길 23-3 이치에 1층,02-3445-5577
우가,RIBBON_ONE,37.524327,127.037348,서울특별시 강남구 도산대로49길 22 화랑빌딩 지하 1층,02-6272-2223 
뜨라또리아샘킴,RIBBON_ONE,37.5238090344097,127.037677142475,서울특별시 강남구 도산대로49길 10-3 ,02-511-3334
개화옥,RIBBON_ONE,37.52771,127.0386,서울특별시 강남구 압구정로50길 7 정동상가 1층 107호,02-549-1459
아우어베이커리,RIBBON_ONE,37.52354898537393,127.03688332564025,서울특별시 강남구 도산대로45길 10-11 JYC2빌딩,02-545-5556
누데이크,RIBBON_ONE,37.5253703709931,127.035679523304,서울특별시 강남구 압구정로46길 50 지하 1층,070-4128-2125
휴고도산,RIBBON_ONE,37.5250144574642,127.036909727014,서울특별시 강남구 도산대로49길 31 아뜨레빌딩 1층,070-4105-7166
코메,RIBBON_ONE,37.52483929944529,127.03663055616519,서울특별시 강남구 선릉로153길 34 1층,02-6397-8090
볼피노,RIBBON_ONE,37.523453,127.036399,서울특별시 강남구 도산대로45길 10-7 신사동 K빌딩,010-2249-1571
수린,RIBBON_ONE,37.525289,127.035494,서울특별시 강남구 언주로164길 24 아크로스빌딩 3층,02-515-9220
꽁티드툴레아,RIBBON_ONE,37.5255631741936,127.036889294894,서울특별시 강남구 도산대로49길 39 ,070-8846-8490
리틀사이공,RIBBON_ONE,37.52796,127.0359,서울특별시 강남구 언주로174길 26 ,02-547-9050 
스패출러바이해비치,RIBBON_ONE,37.5259032192094,127.035092978477,서울특별시 강남구 언주로164길 15-8 노아빌딩 지하1층,02-547-4310
온천집스키야키,RIBBON_ONE,37.5260718190467,127.034712491629,서울특별시 강남구 압구정로42길 43 ,070-7729-7773 
우텐더,RIBBON_ONE,37.526957,127.03578,"서울특별시 강남구 압구정로42길 25-10 1,2층",010-2055-3889
무탄,RIBBON_ONE,37.5272989341349,127.030310574565,서울특별시 강남구 논현로176길 22 1층,02-549-9339 
스시코마츠,RIBBON_ONE,37.525439,127.032238,서울특별시 강남구 언주로165길 7-10 ,02-515-1177
식물성도산,RIBBON_ONE,37.5255020772421,127.034225776804,서울특별시 강남구 압구정로42길 54 ,0507-1432-1178
어성일식,RIBBON_ONE,37.52573778252187,127.03294753291887,서울특별시 강남구 언주로 843 2층,02-3442-6686
하모,RIBBON_ONE,37.523315,127.032782,서울특별시 강남구 언주로 819 2층,02-515-4266
스몰배치서울,RIBBON_ONE,37.5259982940752,127.034104955634,서울특별시 강남구 언주로168길 6-7 ,070-7554-7777
산동교자관,RIBBON_ONE,37.52795,127.0307,서울특별시 강남구 압구정로 214 현대종합상가빌딩,02-514-2608
장사랑,RIBBON_ONE,37.52554,127.0323,서울특별시 강남구 언주로165길 7-4 ,02-546-9994 
두레국수,RIBBON_ONE,37.52282,127.0315,서울특별시 강남구 도산대로37길 28 ,02-3444-1421
조우,RIBBON_ONE,37.5225808095194,127.027855578503,서울특별시 강남구 논현로 831 네오스 1층,02-547-5800
캐비스트리,RIBBON_ONE,37.5224791634001,127.031153770592,서울특별시 강남구 도산대로37길 21 ,02-548-2248
명인등심,RIBBON_ONE,37.52059572557547,127.02968287095139,서울특별시 강남구 도산대로 211 동현빌딩 2층,02-3446-5544
일일향,RIBBON_ONE,37.5234578900975,127.030588326228,서울특별시 강남구 논현로168길 30 ,02-545-6154
압구정면옥,RIBBON_ONE,37.52646320855546,127.02906072050142,서울특별시 강남구 압구정로30길 16 아크힐즈16,02-516-3016 
강남면옥,RIBBON_ONE,37.52141,127.0309,서울특별시 강남구 논현로152길 34 ,02-3446-5539 
포도식당,RIBBON_ONE,37.52443,127.027,서울특별시 강남구 논현로167길 13 일신빌딩 1층,02-514-9252 
목로,RIBBON_ONE,37.525422,127.027559,서울특별시 강남구 압구정로28길 18 ,02-548-7500
길손,RIBBON_ONE,37.525031,127.025307,서울특별시 강남구 논현로175길 40 ,02-546-1247 
비야게레로,RIBBON_ONE,37.511924,127.052772,서울특별시 강남구 봉은사로78길 12 ,02-538-8915
비언유주얼 강남점,RIBBON_ONE,37.5095752689071,127.0446101651,서울특별시 강남구 선릉로108길 5 지하 1층,02-508-1085
레트로오븐,RIBBON_ONE,37.51215,127.0439,서울특별시 강남구 봉은사로55길 25 ,02-544-9045 
키헤이커피,RIBBON_ONE,37.5118320645968,127.053194780969,서울특별시 강남구 봉은사로78길 15 ,010-6455-1243
컵앤드컷,RIBBON_ONE,37.5065177158838,127.054280157476,서울특별시 강남구 테헤란로 431 저스트코타워 1층,070-7760-7870
남도포장마차,RIBBON_ONE,37.48116,126.9459,서울특별시 관악구 청룡2길 3 ,02-871-9121 
려,RIBBON_ONE,37.4821054065899,126.950487720839,서울특별시 관악구 봉천로 456 영인 MC 202호,02-874-1275
신기루황소곱창구이,RIBBON_ONE,37.479197,126.95068,서울특별시 관악구 관악로13길 25 세종오피스텔,02-887-5000
쟝블랑제리,RIBBON_ONE,37.47720087747186,126.9619863012828,서울특별시 관악구 낙성대역길 8 ,02-889-5170 
모힝,RIBBON_ONE,37.479028,126.953504,서울특별시 관악구 남부순환로226길 36 2층,02-873-5164
스시만,RIBBON_ONE,37.49414,126.9948,서울특별시 서초구 동광로27길 3 폴라리스빌딩 1층,02-533-0181
우주,RIBBON_ONE,37.4936455498871,126.993857605338,서울특별시 서초구 동광로 106 2층,02-2138-0881
도우룸,RIBBON_ONE,37.493798,126.993333,서울특별시 서초구 동광로 99 2층,02-535-9386
김씨부인,RIBBON_ONE,37.4990936398824,126.998753088906,서울특별시 서초구 사평대로26길 26-6 반포927빌딩,02-532-5327 
줄리에뜨,RIBBON_ONE,37.493937,127.00103,서울특별시 서초구 동광로 178 ,02-535-4002 
남도미락,RIBBON_ONE,37.50039,127.0007,서울특별시 서초구 사평대로 150 ,02-595-6060
볼라레,RIBBON_ONE,37.499069,126.996889,서울특별시 서초구 사평대로20길 8 성훈빌딩,02-537-1100
톰볼라,RIBBON_ONE,37.49882,126.9975,서울특별시 서초구 서래로7길 16 ,02-593-4660
시실리,RIBBON_ONE,37.49728,126.9985,서울특별시 서초구 서래로 26 ,02-591-1929
서래오뎅,RIBBON_ONE,37.4992525794113,126.998962639243,서울특별시 서초구 사평대로26길 22 남성빌딩,02-591-5505
스시쇼우,RIBBON_ONE,37.49878070777355,126.99786942617622,서울특별시 서초구 사평대로22길 17 2층,02-595-4510
스시고,RIBBON_ONE,37.49889,126.9979,서울특별시 서초구 사평대로22길 15 ,02-595-4700 
꽃지,RIBBON_ONE,37.51465,127.0619,서울특별시 강남구 봉은사로 610 수도빌딩 1층,02-561-8788
삼성원조양곱창,RIBBON_ONE,37.52083,127.0576,서울특별시 강남구 학동로101길 7 승창빌딩 1층,02-545-8895
경평면옥,RIBBON_ONE,37.51085907051559,127.05573411165798,서울특별시 강남구 삼성로104길 12 윤빈빌딩 2층,02-539-6054 
아야진생태찌개,RIBBON_ONE,37.51175,127.0547,서울특별시 강남구 삼성로108길 8 LnA빌딩,02-555-2680 
오크레스토랑,RIBBON_ONE,37.5109823973192,127.058205573267,서울특별시 강남구 테헤란로87길 46 오크우드호텔 5층,02-3466-7277
아시안라이브,RIBBON_ONE,37.5129436953442,127.057114235894,서울특별시 강남구 봉은사로 524 인터컨티넨탈 서울 코엑스 2층,02-3430-8620 
스시욘즈,RIBBON_ONE,37.5089551867803,127.056808306719,서울특별시 강남구 삼성로96길 11 ,010-5225-6210 
능라도강남점,RIBBON_ONE,37.5096776765406,127.055536318832,서울특별시 강남구 삼성로 534 싹아트센터 1층,02-569-8939
르푸도레,RIBBON_ONE,37.5109823973192,127.058205573267,서울특별시 강남구 테헤란로87길 46 호텔오크우드프리미어 1층,02-3466-8899
서백자간장게장,RIBBON_ONE,37.5102187627967,127.05527375054,서울특별시 강남구 삼성로 542 석천빌딩 2층,02-543-3529
이봉,RIBBON_ONE,37.5065396188048,127.06280753409,서울특별시 강남구 테헤란로98길 28 성연빌딩 1층,02-561-0132
까르니브라질그릴,RIBBON_ONE,37.482007,126.996644,서울특별시 서초구 방배로 83-9 동화빌딩 5층,02-598-5066
비스트로뽈뽀,RIBBON_ONE,37.494716,126.990082,서울특별시 서초구 방배로42길 29 ,02-537-7090
일도씨닭갈비,RIBBON_ONE,37.479727563019,126.999133741459,서울특별시 서초구 방배로8길 4 우진빌딩 1층 ,02-581-0709
개성집,RIBBON_ONE,37.53287,126.8691,서울특별시 양천구 목동중앙서로 48 ,02-2642-5695
뉴웨이브카페,RIBBON_ONE,37.5209328477412,126.876746663862,서울특별시 양천구 신목로2길 35-1 1충,010-3363-5713
히노야마,RIBBON_ONE,37.517373,126.865309,서울특별시 양천구 목동서로 349 센트럴프라자 1층,02-2650-8667
일미락,RIBBON_ONE,37.5254169018151,126.872955497947,서울특별시 양천구 목동동로 226-16 ,02-2642-9292 
이키이키,RIBBON_ONE,37.5241845160433,126.87245802316,서울특별시 양천구 목동동로14길 10 ,070-4759-0736
임진강민물장어,RIBBON_ONE,37.54946,126.8763,서울특별시 강서구 양천로 723 성우빌딩,02-3663-7900 
삼거리먼지막순대국,RIBBON_ONE,37.491696,126.90722,서울특별시 영등포구 시흥대로185길 11 ,02-848-2469
막내회센타,RIBBON_ONE,37.51188,126.9144,서울특별시 영등포구 도신로53길 7 소민빌딩 2층,02-844-6150 
린궁즈멘관,RIBBON_ONE,37.490841370015886,126.89928112630038,서울특별시 영등포구 디지털로49길 13-1 ,02-845-5888 
타르데마,RIBBON_ONE,37.5508932986207,126.836942560718,서울특별시 강서구 강서로46길 9 ,02-6397-1782 
서평면옥,RIBBON_ONE,37.4921758625358,126.924271334879,서울특별시 동작구 보라매로5길 15 전문건설회관,02-3284-3677
등나무집,RIBBON_ONE,37.48816,126.9079,서울특별시 동작구 대림로 52 ,02-843-8989 
상남스시,RIBBON_ONE,37.4982007062265,126.923839026725,서울특별시 동작구 여의대방로24길 64 ,02-822-3455
가네끼스시,RIBBON_ONE,37.491243,126.924082,서울특별시 동작구 보라매로5가길 16 보라매아카데미타워 2층,02-831-3472 
그란구스또,RIBBON_ONE,37.50193,127.0596,서울특별시 강남구 삼성로 340 앨포트빌딩 1층,02-556-3960
베카프리미엄델리샵,RIBBON_ONE,37.5037840530077,127.06025436091,서울특별시 강남구 역삼로 521 대종빌딩 101호,010-7472-6021
아선재,RIBBON_ONE,37.504150929638236,127.06487179442593,서울특별시 강남구 영동대로 333 동원빌딩 지하1층,02-6339-1112
안남,RIBBON_ONE,37.4869159664401,127.051855548139,서울특별시 강남구 언주로 118 우성캐릭터199 1층,02-571-9412
농민백암순대,RIBBON_ONE,37.5037329376349,127.052982069884,서울특별시 강남구 선릉로86길 40-4 ,02-555-9603
마초야,RIBBON_ONE,37.49988967209787,127.05303895241715,서울특별시 강남구 역삼로64길 18 ,02-6012-9057
여수오동도,RIBBON_ONE,37.502091,127.0583,서울특별시 강남구 삼성로71길 7 보광빌딩 1층,02-557-0039
오디너리플레져,RIBBON_ONE,37.5081052259765,127.021186916593,서울특별시 서초구 사평대로55길 94 씨엘빌딩 1층,070-7525-4209
남서울민물장어,RIBBON_ONE,37.50627,127.0295,서울특별시 강남구 봉은사로 137 상원빌딩,02-544-1010
봉산평양냉면,RIBBON_ONE,37.51280919580697,127.02165357641486,서울특별시 강남구 학동로1길 21 ,02-515-3989 
노들강,RIBBON_ONE,37.5062314417537,127.025972171991,서울특별시 강남구 강남대로114길 21 ,02-517-6044 
아나고야,RIBBON_ONE,37.509286,127.022812,서울특별시 강남구 강남대로124길 3-9 ,02-877-5391
히까리,RIBBON_ONE,37.50742,127.0235,서울특별시 강남구 강남대로 506 광명빌딩 2층,070-4400-8788
더바른정육식당,RIBBON_ONE,37.5054276033769,127.024527634543,서울특별시 강남구 강남대로 482 ,02-541-7935
구루메스시,RIBBON_ONE,37.51051668092548,127.02353498939178,서울특별시 강남구 학동로4길 15 동화상가 1층,02-517-0709
화춘옥청담점,RIBBON_ONE,37.5214834460024,127.037710249005,서울특별시 강남구 도산대로50길 15 ,02-511-1945
한우리,RIBBON_ONE,37.5211495474917,127.034729328677,서울특별시 강남구 도산대로 304 ,02-545-3334
대가방,RIBBON_ONE,37.5211553001199,127.038549558779,서울특별시 강남구 선릉로145길 13 ,02-544-6336
한우리한정식,RIBBON_ONE,37.52147,127.0352,"서울특별시 강남구 도산대로 308 코오라빌딩 4, 5층",02-541-4270 
신사면옥,RIBBON_ONE,37.52125,127.0366,서울특별시 강남구 도산대로46길 11 논현오피스텔,02-518-7228
현복집,RIBBON_ONE,37.521478,127.037326,서울특별시 강남구 도산대로50길 14 동아빌딩 1층,02-511-6888 
솔트,RIBBON_ONE,37.51519954278996,127.03333653116074,서울특별시 강남구 학동로 223-9 ,02-545-5606 
가람국시,RIBBON_ONE,37.51674,127.0341,서울특별시 강남구 언주로135길 13 ,02-541-8200 
류몽민,RIBBON_ONE,37.5143957753291,127.028815905333,서울특별시 강남구 학동로25길 11 씨플레이스 2층,02-6404-8080 
우정양곱창,RIBBON_ONE,37.51843321067631,127.03010733587352,서울특별시 강남구 도산대로30길 23 ,02-6083-5830
목포자매집,RIBBON_ONE,37.51009,127.0354,서울특별시 강남구 언주로115길 14 ,02-543-0729 
마포숯불갈비,RIBBON_ONE,37.5206,127.0328,서울특별시 강남구 도산대로 232 청학아파트 A동,02-516-1522
홍명,RIBBON_ONE,37.51449,127.029443,서울특별시 강남구 논현로131길 10 ,02-548-2223
시오,RIBBON_ONE,37.5205778099808,127.03921056508,서울특별시 강남구 도산대로54길 33 ,02-6013-5110
대삼식당,RIBBON_ONE,37.5174902364919,127.036153686218,서울특별시 강남구 학동로41길 23 ,02-545-2255
모노로그,RIBBON_ONE,37.517745812005636,127.02603486955721,서울특별시 강남구 논현로149길 31 동남빌딩,02-545-9996
원디그리노스,RIBBON_ONE,37.5166294605324,127.037462121204,서울특별시 강남구 학동로43길 8 ,070-4333-8884
디히랑,RIBBON_ONE,37.5118740693026,127.035057905947,서울특별시 강남구 언주로121길 4-3 ,02-511-7284
르와조,RIBBON_ONE,37.5594526887597,126.833912548403,서울특별시 강서구 공항대로 237 에이스타워마곡 120호,070-7543-6428
안스베이커리,RIBBON_ONE,37.5713698504776,126.80296035927,서울특별시 강서구 하늘길 38 ,02-6116-3058 
게장게장게장,RIBBON_ONE,37.5596113961056,126.837242277605,서울특별시 강서구 공항대로 269-15 힐스테이트에코마곡 2층 220-1호,02-2668-0490
고성막국수,RIBBON_ONE,37.577407,126.816112,서울특별시 강서구 방화대로49길 6-7 ,02-2665-1205 
이파리,RIBBON_ONE,37.560835635621,126.829618546018,서울특별시 강서구 마곡중앙6로 21 이너매스마곡Ⅰ 2층 213호,0507-1373-2887
쿤쏨차이,RIBBON_ONE,37.4961957717521,127.0143254664647,서울특별시 서초구 서초대로53길 23 수성수빌딩 1층,02-596-6411
소나무집,RIBBON_ONE,37.458346,127.011579,서울특별시 서초구 식유촌길 71 ,02-577-9292 
우진가,RIBBON_ONE,37.494649871484306,127.0123077962813,서울특별시 서초구 법원로4길 32 부민빌딩 지하 1층,02-537-4234
샘밭막국수,RIBBON_ONE,37.495414,127.016403,서울특별시 서초구 서초중앙로24길 27 G5센트럴프라자 지하 1층,02-585-1702 
미나미,RIBBON_ONE,37.4933,127.0181,서울특별시 서초구 서초대로58길 31-2 ,02-522-0373
장티크베이커리,RIBBON_ONE,37.49345568764088,127.02114139054106,서울특별시 서초구 서초대로64길 50 ,02-598-7600
서초장어타운,RIBBON_ONE,37.49289,127.0131,서울특별시 서초구 반포대로28길 77 ,02-521-6934 
설눈,RIBBON_ONE,37.491233489324316,127.00976980121769,서울특별시 서초구 서초대로46길 20-7 영토빌딩,02-6959-9339
이여곰탕,RIBBON_ONE,37.49183887029659,127.01086899157218,서울특별시 서초구 서초대로46길 19-15 ,02-598-9337 
동신명가,RIBBON_ONE,37.4910060488883,127.010080956911,서울특별시 서초구 반포대로28길 31 석천빌딩 1층,02-583-8892 
루엘드파리,RIBBON_ONE,37.484014,127.017341,서울특별시 서초구 서초중앙로 18 서초쌍용플래티넘 1층,02-322-0939 
남부,RIBBON_ONE,37.4839440321864,127.012917836855,서울특별시 서초구 효령로52길 5 ,02-522-7567
서초갈비,RIBBON_ONE,37.48177,127.0129,서울특별시 서초구 반포대로 12 ,02-582-2988
마틸다바베큐치킨,RIBBON_ONE,37.5075121874388,127.008065342049,서울특별시 서초구 신반포로 219 반포쇼핑타운 지하1층,02-594-7592 
해남천일관,RIBBON_ONE,37.4986606964681,127.001972587035,서울특별시 서초구 반포대로39길 36-1 ,02-568-7775
대전집,RIBBON_ONE,37.502007409189,126.987786107024,서울특별시 서초구 신반포로 27-6 한신종합상가 지하 127호,02-599-2843
가이센,RIBBON_ONE,37.503518,127.009698,서울특별시 서초구 고무래로 10-6 상영빌딩 1층,070-7715-8149
담장옆에국화꽃,RIBBON_ONE,37.5044921229104,127.007845270854,서울특별시 서초구 사평대로 205 센트럴시티 파미에스테이션 2층 204호,02-591-1157
텍사스데브라질,RIBBON_ONE,37.504425,127.00776,서울특별시 서초구 사평대로 205 센트럴시티 파미에스테이션,02-6282-5000 
스시모루,RIBBON_ONE,37.5366048791746,127.133115595362,서울특별시 강동구 천호대로 1089 신동아 파밀리에 지하 1층,02-471-1717 
암사민물장어,RIBBON_ONE,37.55496,127.129,서울특별시 강동구 고덕로 33 ,02-3426-2253 
호라이즌,RIBBON_ONE,37.5039351769908,127.002413006799,서울특별시 서초구 신반포로 176 신세계백화점 강남점 3층,02-3479-1992 
브랜뉴하이몬드,RIBBON_ONE,37.536433399041,127.126157127477,서울특별시 강동구 천호옛14길 11 ,02-478-2402 
초롱이고모부대찌개,RIBBON_ONE,37.54987,127.1288,서울특별시 강동구 상암로11길 4 ,02-442-3546 
율베이커리,RIBBON_ONE,37.5333584448635,127.135449331754,서울특별시 강동구 양재대로103길 43 ,02-486-1867
황푸차이나,RIBBON_ONE,37.5474482522073,127.143698245033,서울특별시 강동구 양재대로 1590 ,02-442-1211 
앙상블,RIBBON_ONE,37.552187608984575,127.14368312591535,서울특별시 강동구 양재대로147길 5 2층,02-441-9451
송하정스시,RIBBON_ONE,37.550696993229145,127.17224337890242,서울특별시 강동구 상일로 39-8 ,010-7104-9482
강남교자,RIBBON_ONE,37.50144,127.0244,서울특별시 서초구 강남대로69길 11 삼미빌딩 2층,02-536-4133
혜장국,RIBBON_ONE,37.5034603568189,127.022680491549,서울특별시 서초구 사평대로56길 4 ,02-595-3339 
리샨,RIBBON_ONE,37.49661,127.0269,서울특별시 서초구 서초대로74길 11 삼성전자빌딩 지하1층,02-587-6700 
웨인스베이글스,RIBBON_ONE,37.4919941549832,127.028848796506,서울특별시 서초구 효령로77길 34 아크로텔 강남역 1층,070-4128-6504
조양관,RIBBON_ONE,37.4949,127.0274,서울특별시 서초구 서초대로74길 29 서초파라곤 지하 1층,02-3473-8181 
라망드셰프,RIBBON_ONE,37.490398,127.033044,서울특별시 강남구 강남대로62길 18 맥산빌딩 1층,02-6338-6984 
신정,RIBBON_ONE,37.49711,127.0323,서울특별시 강남구 테헤란로8길 29 ,02-554-1033
녘,RIBBON_ONE,37.5027658420773,127.026657450782,서울특별시 강남구 봉은사로4길 32 2층,070-8884-0710
우동명가기리야마본진,RIBBON_ONE,37.49716,127.0304,서울특별시 강남구 강남대로84길 23 한라클래식 오피스텔 지하1층,02-567-0068 
브릭오븐,RIBBON_ONE,37.50305,127.0277,서울특별시 강남구 강남대로102길 31 2층,02-508-1325
원주추어탕,RIBBON_ONE,37.504,127.0254,서울특별시 강남구 강남대로110길 6 ,02-557-8647 
진사향,RIBBON_ONE,37.50199919273351,126.88335175195856,서울특별시 구로구 새말로 20 서울인관광호텔 지하 1층,02-2229-5507 
춘천옥,RIBBON_ONE,37.47789,126.8897,서울특별시 금천구 디지털로12길 19 2층,02-868-9937
진동둔횟집,RIBBON_ONE,37.51216,127.0196,서울특별시 서초구 강남대로91길 18 ,02-544-2179 
따뚱,RIBBON_ONE,37.51853,127.0181,서울특별시 서초구 강남대로107길 6 더리버사이드호텔 2층,02-6710-1888 
꿉당,RIBBON_ONE,37.5166413661632,127.018909049863,서울특별시 서초구 강남대로 615 금정빌딩,02-545-9600
한성돈까스,RIBBON_ONE,37.5147588693048,127.019094304612,서울특별시 서초구 강남대로97길 10 ,02-540-7054 
오복꼬리곰탕,RIBBON_ONE,37.514777,127.018792,서울특별시 서초구 강남대로97길 16 서원빌딩,02-542-4610
태천옥,RIBBON_ONE,37.48654040068214,126.85617585284692,서울특별시 구로구 개봉로 9 ,02-2613-6317 
양평신내서울해장국큰아들집,RIBBON_ONE,37.5166413661632,127.018909049863,서울특별시 서초구 강남대로 615 ,02-516-0208
영동설렁탕,RIBBON_ONE,37.51616,127.0174,서울특별시 서초구 강남대로101안길 24 ,02-543-4716
쇼토,RIBBON_ONE,37.52384777173811,127.02430843056398,서울특별시 강남구 압구정로18길 14-6 ,02-512-3625
칙피스 ,RIBBON_ONE,37.51912282497437,127.02473222317606,서울특별시 강남구 강남대로152길 69 ,02-6956-6780
산호,RIBBON_ONE,37.5223,127.0204,서울특별시 강남구 논현로175길 111 만수빌딩,02-517-0035 
미미면가,RIBBON_ONE,37.520036,127.021089,서울특별시 강남구 강남대로160길 29 ,070-4233-5466
채운,RIBBON_ONE,37.52241,127.0208,서울특별시 강남구 논현로175길 107 큐빅디자인빌딩 1층,02-516-8837 
오리지널팬케이크하우스,RIBBON_ONE,37.52098,127.0216,서울특별시 강남구 강남대로162길 41 동원빌딩,02-511-7481 
돈불리제담,RIBBON_ONE,37.5187672551656,127.020691646267,서울특별시 강남구 압구정로2길 46 강남상가아파트,02-546-2995
크라운돼지,RIBBON_ONE,37.51852177044802,127.02046975493539,서울특별시 강남구 강남대로156길 17-1 ,02-512-5700
커피휘엘,RIBBON_ONE,37.51697,127.0236,서울특별시 강남구 논현로149길 62 영빌딩 1층,070-4665-8138 
첨벙아구찜,RIBBON_ONE,37.51579,127.0209,서울특별시 강남구 강남대로150길 12 ,02-543-8873
엘피노323,RIBBON_ONE,37.5196034778722,127.019076195659,서울특별시 강남구 강남대로 652 신사스퀘어 205호,02-797-3233
태번38,RIBBON_ONE,37.5196034778722,127.019076195659,서울특별시 강남구 강남대로 652 신사스퀘어 2층 202~203호,02-522-3738
키이로,RIBBON_ONE,37.5195101291255,127.019106035326,서울특별시 강남구 강남대로 652 신사스퀘어 206호,070-4413-1160
느루집,NOT,37.5174631210953,126.896493699106,서울특별시 영등포구 당산로 34 ,0507-1362-5201
더하노이,NOT,37.5141649803156,127.063851151366,서울특별시 강남구 영동대로106길 33 화성빌딩 103호,0507-1483-3650
커피베르비에,NOT,37.52817822371467,126.87577187643134,서울특별시 양천구 목동동로 293 현대41타워,02-2168-2730 
송죽장,NOT,37.5182520985876,126.904700613521,서울특별시 영등포구 문래로 203 ,02-2678-1323
바르세울로나,NOT,37.5131245864065,127.122897207665,서울특별시 송파구 위례성대로12길 5 ,02-6958-5564
디럭스포차,NOT,37.5134640907308,126.892837402698,서울특별시 영등포구 도림로139길 17-3 ,02-2671-5201
백년옥,NOT,37.481133,127.013754,서울특별시 서초구 남부순환로 2407 ,02-523-2860
피양콩할마니,NOT,37.5041098746658,127.055240972615,서울특별시 강남구 삼성로81길 30 ,02-508-0476 
푸드더즈매터,NOT,37.4962659038648,126.997625688538,서울특별시 서초구 서래로1길 10 A동 1층 ,02-593-3322
명정루(선릉본점),NOT,37.5047428849251,127.053159553826,서울특별시 강남구 테헤란로70길 12 H 타워 1층,02-6956-9872
스시쿠루미,NOT,37.521872,127.042542,서울특별시 강남구 선릉로146길 33 2층,02-545-2030
수묵당,NOT,37.4944247834549,127.038685534981,서울특별시 강남구 도곡로23길 33 1층,02-511-2962
제일식당,NOT,37.5637577243541,126.851844528395,서울특별시 강서구 양천로 443-36 ,02-3661-3616
젤라떼리아도도,NOT,37.5073118031018,127.106021212701,서울특별시 송파구 백제고분로41길 21-24 1층  ,02-421-8497
위딘커피,NOT,37.5027670147241,127.110766419496,서울특별시 송파구 가락로17길 4-9 ,0507-1374-3075
군산오징어,NOT,37.50631,127.097,서울특별시 송파구 삼학사로 101 군산오징어빌딩 1층,02-413-2046 
디베르티티,NOT,37.502541427323,127.108899027292,서울특별시 송파구 송파대로39길 1-8 101호,02-417-5663
동양,NOT,37.5092546717859,127.12882845771,서울특별시 송파구 양재대로72길 17 ,0507-1387-7739
비스트로베네토,NOT,37.5147607136931,127.119120258928,서울특별시 송파구 위례성대로 58 올림픽베어스타운 1층,02-401-4870
멘야하나비,NOT,37.5109164436053,127.107722449185,서울특별시 송파구 백제고분로45길 38 멘야하나비 잠실 본점,070-8959-4408
우프베이커리,NOT,37.508017011539,127.106929511608,서울특별시 송파구 백제고분로41길 25 ,010-3253-2358
모나모나,NOT,37.5069006300365,127.087485239662,서울특별시 송파구 백제고분로19길 26 모나모나,010-2186-7179
8b돌체,NOT,37.513859279255,127.101857941447,서울특별시 송파구 올림픽로 지하265 ,02-424-8822
푼주,NOT,37.4826273644389,127.126626946849,서울특별시 송파구 새말로 114 ,02-408-6444
커피앰비언스 ,NOT,37.5015695882044,127.124850928522,서울특별시 송파구 송이로17길 51 ,02-449-9967 
내일도두부,NOT,37.4983080339873,127.151155298044,서울특별시 송파구 마천로45길 30 1층,02-1800-6684
파크루안,NOT,37.498963,127.038343,서울특별시 강남구 논현로 430 아세아타워빌딩 지하1층,02-562-5565 
육개옥,NOT,37.507246947003,127.032257860617,서울특별시 강남구 봉은사로 167 ,02-516-9181
만타,NOT,37.5031028684087,127.04017584493,서울특별시 강남구 테헤란로37길 13-6 태웅빌딩 1층,02-6952-5321
역삼동북어집,NOT,37.49857,127.0367,서울특별시 강남구 논현로85길 5-14 ,02-558-6605
대우부대찌개강남본점,NOT,37.50272,127.0353,서울특별시 강남구 테헤란로25길 34 ,02-552-1663
젠제로,NOT,37.5152700382785,127.043229960702,서울특별시 강남구 선릉로126길 14 예우빌딩 1층,02-543-1261
진성칼국수,NOT,37.519504,127.050675,서울특별시 강남구 학동로81길 7 ,02-511-8157
라시네,NOT,37.5180983015937,127.043439274897,서울특별시 강남구 학동로59길 5 3층,010-6540-2601
토담골,NOT,37.523307,127.048241,서울특별시 강남구 삼성로 766 유림빌딩 지하 1층,02-548-5115
케이하우스,NOT,37.5235467773742,127.0489155413,서울특별시 강남구 도산대로90길 16 ,02-514-2528 
쿠시아게진,NOT,37.5224164440038,127.043695401049,서울특별시 강남구 선릉로148길 52-10 ,010-3492-1957
페코리노,NOT,37.5224534383828,127.044517830428,서울특별시 강남구 도산대로68길 18 ,010-5732-3419
청담골,NOT,37.5227,127.0434,서울특별시 강남구 선릉로148길 48 미준빌딩,02-543-1252
우랑,NOT,37.5261092686954,127.053596230339,서울특별시 강남구 압구정로79길 79 ,0507-1361-4005
우블링,NOT,37.5228274339838,127.040015488815,서울특별시 강남구 도산대로 406 청담퍼스트타워 1층 102호,02-546-5310 
맷카페,NOT,37.5138900858308,127.040621061238,서울특별시 강남구 학동로50길 42 ,070-7599-2212
길풍식당,NOT,37.5378376344984,126.894643881557,서울특별시 영등포구 양평로 118 ,02-2634-1359 
너도나도식당,NOT,37.5382334285342,126.893922350178,서울특별시 영등포구 양평로 126 신성빌딩 1층,02-2634-5469
계옥정,NOT,37.5132835373582,126.893343713248,서울특별시 영등포구 경인로79길 17-2 ,02-2678-5201
비닐하우스,NOT,37.5142589272797,126.897682058175,서울특별시 영등포구 도림로128가길 13-8 ,02-322-2514
당산원조곱창,NOT,37.532225,126.901019,서울특별시 영등포구 당산로45길 9 ,02-2634-7773
당산옛날곱창,NOT,37.5353741059467,126.902277256782,서울특별시 영등포구 당산로47길 14 ,02-3667-2315
빠뜨릭스와플 ,NOT,37.51836,126.9339,서울특별시 영등포구 국제금융로 112 상아빌딩 1층,02-3775-0608
장원북어국,NOT,37.52113,126.9299,서울특별시 영등포구 국제금융로8길 11 대영빌딩,02-784-0639
영동족발,NOT,37.484547,127.037988,서울특별시 서초구 남부순환로358길 8 ,02-571-3939
양재닭집,NOT,37.4843108450591,127.03796596878,서울특별시 서초구 남부순환로356길 15 양재종합시장 지하 1층,02-572-1741
커피플랜트,NOT,37.48615039398465,127.03578399466674,서울특별시 강남구 강남대로44길 24 도곡그린빌,02-529-4601
남순남순대국,NOT,37.48914,127.0334,서울특별시 강남구 도곡로4길 12 지엠빌딩 1층,02-574-3227
프레스카29,NOT,37.48387,127.0444,서울특별시 강남구 논현로28길 29 토펙빌딩,02-575-2558
포브라더스,NOT,37.484,127.0453,서울특별시 강남구 논현로28길 40 덕영빌딩,02-574-4147
심양,NOT,37.5273787104138,127.038528777361,서울특별시 강남구 선릉로161길 21 ,02-545-9211
커피트리,NOT,37.53196,127.0269,서울특별시 강남구 압구정로29길 67 ,02-547-1029
호화반점,NOT,37.5269462575567,127.039802628162,서울특별시 강남구 선릉로161길 5 ,02-543-8543 
구들,NOT,37.5257683834006,127.037584796844,서울특별시 강남구 선릉로155길 26 3층,010-7559-1592
애니오케이션 ,NOT,37.5240565925233,127.038074565192,서울특별시 강남구 도산대로51길 14 ,070-8839-1470
까폼,NOT,37.5248762621515,127.037988213227,서울특별시 강남구 선릉로153길 18 지하1층,02-6081-7318
씨와이파티세리 ,NOT,37.5237141786447,127.037896897426,"서울특별시 강남구 도산대로49길 10-6 젤로빌딩 2, 3층",02-548-9480
스시츠바키,NOT,37.527861899218,127.036312210926,서울특별시 강남구 언주로174길 30 로빈명품관 101호,02-545-9149
금성스테이크부대찌개,NOT,37.5279678162173,127.035856001621,서울특별시 강남구 언주로174길 26 남강빌딩 1층,02-547-4872 
우모크,NOT,37.5266090561205,127.035421951109,서울특별시 강남구 언주로170길 22 지하 2층,010-9632-0070
파머스마켓팥집,NOT,37.5248243999828,127.027837746706,서울특별시 강남구 압구정로28길 25 ,070-8834-8887
오미가한정식,NOT,37.5228295670581,127.027894925038,서울특별시 강남구 논현로 833 ,02-543-1145
수담한정식,NOT,37.51047,127.046,서울특별시 강남구 봉은사로 418 조양빌딩,02-558-4900
맛자랑,NOT,37.5066550675471,127.04838618187,서울특별시 강남구 선릉로 524 선릉대림아크로텔 107호,02-563-9646
해태식당,NOT,37.481239329407565,126.94811389134087,서울특별시 관악구 청룡1길 33 관악하우팰리스,02-885-5398
카페드발렌느,NOT,37.4858173465196,126.927993853485,서울특별시 관악구 신림로67길 23 102호,02-6052-2755
만양순대국,NOT,37.486386678699056,126.94994205082227,서울특별시 관악구 은천로 132 ,02-813-9633 
완산정,NOT,37.481674097012295,126.9536038806978,서울특별시 관악구 봉천로 484 ,02-878-3400 
뉴욕스테이크하우스,NOT,0.0,0.0,서울특별시 서초구 사평대로22길 37 ,02-535-9845
포폴라리타,NOT,37.497673,126.997758,서울특별시 서초구 사평대로22길 41 성운빌딩 1층,02-593-2340
칫쵸,NOT,37.4937404364019,126.992480394027,서울특별시 서초구 동광로 93 테라스빌딩 2층,010-9934-7896
삼성국수,NOT,37.51469,127.0594,서울특별시 강남구 영동대로 611 Chan&Chan Tower,02-3442-1957
마노디셰프,NOT,37.509053,127.058313,서울특별시 강남구 테헤란로87길 21 동성빌딩 지하 1층,02-561-9011 
팀호완,NOT,37.5114495900297,127.0568656195432,서울특별시 강남구 봉은사로86길 30 1층,02-6207-3082
박서방순대국밥,NOT,37.508658,127.055941,서울특별시 강남구 삼성로 520 ,02-568-9205 
스카이라운지,NOT,37.5129436953442,127.057114235894,서울특별시 강남구 봉은사로 524 코엑스인터콘티넨탈서울,02-3430-8630 
후레쉬빌,NOT,37.5082024036362,127.066305587885,서울특별시 강남구 테헤란로108길 19 ,02-501-9797
선화의고기,NOT,37.4869862662895,126.993367652945,서울특별시 서초구 서초대로24길 9 동산빌딩,02-3486-5505
라이프브레드,NOT,37.4886249229289,126.998278019339,서울특별시 서초구 서초대로34길 19 S.Terra 1층,010-3400-3419
델젤라떼리아,NOT,37.490585605616,126.993247813988,서울특별시 서초구 방배로28길 19 ,070-8860-0510
리브고쉬,NOT,37.5216245595859,126.870444168108,"서울특별시 양천구 목동동로 177 삼성쉐르빌2 103, 104호",010-6834-0038
여수동촌,NOT,37.50333,127.0575,서울특별시 강남구 삼성로75길 9 ,02-556-0530 
송씨해물점,NOT,37.506940760217255,127.02696758540216,서울특별시 강남구 강남대로116길 37 지하 1층,02-545-6779
논현양꼬치,NOT,37.50992516737628,127.02571546018511,서울특별시 강남구 학동로6길 37 ,02-516-9792 
비플리끄그릴,NOT,37.5210587932382,127.036886398434,서울특별시 강남구 언주로148길 29 한원빌딩 1층,02-597-7774
키겐,NOT,37.5221662900104,127.038350529847,서울특별시 강남구 언주로150길 51 지하 1층,02-542-5565 
토가라시,NOT,37.5146337771289,127.02899335598,서울특별시 강남구 학동로25길 14 1층,02-515-5799
광주똑순이아구찜,NOT,37.5593835750015,126.837861297457,서울특별시 강서구 강서로 375-8 ,02-2668-3030
일본요리집정화,NOT,37.5673140391214,126.827554917518,서울특별시 강서구 마곡중앙5로 6 보타닉푸르지오시티 지하 1층 B136호,010-3950-0614
명동곰돌이,NOT,37.495612,127.01539,서울특별시 서초구 서초대로55길 11 ,02-594-3989
3대삼계장인,NOT,37.491302882416,127.011591359711,서울특별시 서초구 반포대로28길 56-3 한라빌딩 1층  ,02-522-2270
룰커피 ,NOT,37.4824271909759,127.011074872818,서울특별시 서초구 반포대로7길 16 ,없음
프리퍼,NOT,37.4820788271549,127.011429837981,서울특별시 서초구 반포대로5길 4 성원빌딩,02-2690-0962
비노인빌라,NOT,37.48081,127.011661,서울특별시 서초구 남부순환로319길 14 가남빌딩,02-599-7020
큐뮬러스,NOT,37.4897066749488,127.030992140879,서울특별시 서초구 강남대로 299 에피소드 강남 262 1층,02-522-7587
천년식향,NOT,37.4854201490875,127.018966531325,서울특별시 서초구 효령로 316-1 3층,010-6323-7231
앵콜칼국수,NOT,37.481262,127.013393,서울특별시 서초구 효령로52길 69 ,02-525-8418 
부일갈비,NOT,37.483864,127.019691,서울특별시 서초구 서초중앙로2길 42 ,02-3482-3112
스시마이우,NOT,37.5062203134857,127.005051680109,서울특별시 서초구 신반포로 지하200 강남터미널지하쇼핑몰 G29-30호,02-537-3608
무드서울,NOT,37.5124362037118,126.995962256954,서울특별시 서초구 올림픽대로 2085-14 반포한강공원 솔빛섬 2층 ,02-532-5270
달가마,NOT,37.503934456230404,127.00241119724721,서울특별시 서초구 신반포로 176 신세계센트럴시티 파미에스테이션 1층,02-6282-5555 
유천냉면,NOT,37.52849,127.1156,서울특별시 송파구 강동대로3길 22 ,02-419-4000
안녕식당,NOT,37.5398789692901,127.128195554633,서울특별시 강동구 천호대로159길 53 ,02-473-0543
에토레,NOT,37.50449284378187,127.00784436615872,서울특별시 서초구 사평대로 205 파미에스테이션 1층,02-6282-3000
풍년집,NOT,37.5364188945323,127.12221435572,서울특별시 송파구 바람드리28길 5 ,02-475-1512
애크로매틱커피파트너스,NOT,37.526262166373165,127.12642417750322,서울특별시 강동구 성내로14길 37 103호,02-577-1664
카페제이,NOT,37.5606685127751,127.157998151763,서울특별시 강동구 동남로82길 19 ,070-8270-9370
사유의서재(강남점),NOT,37.5008847132213,127.027482685232,서울특별시 강남구 강남대로98길 11 메트로빌딩 5층,0507-1324-0957
위트앤미트,NOT,37.5036785514807,127.027484274765,서울특별시 강남구 강남대로110길 32 ,02-508-2396
진영면옥,NOT,37.4715699238483,126.90039992595,서울특별시 금천구 가산로 22-5 ,02-864-2383
동경전통육개장설곰탕,NOT,37.5007217293612,127.030740316375,서울특별시 강남구 테헤란로7길 22 ,02-566-9779
오키소바,NOT,37.4772365189989,126.883695161966,서울특별시 금천구 가산디지털1로 128 stxv타워 지하1층 129호,02-812-1132
강남따로국밥,NOT,37.5155681940207,127.018825754067,서울특별시 서초구 신반포로47길 118 근생빌딩 2층,02-543-2527
의정부평양면옥,NOT,37.512913,127.018912,서울특별시 서초구 강남대로93길 28 ,02-547-6947
마히나비건테이블,NOT,37.5236566514026,127.023048491895,서울특별시 강남구 논현로175길 75 동인빌딩 2층,0507-1371-5331
꿍탈레,NOT,37.5227822943748,127.021750577543,서울특별시 강남구 압구정로10길 14 2층,02-543-5358 
천미미,NOT,37.517382475711,127.020330650586,서울특별시 강남구 강남대로152길 11 1층,02-540-7200
피라타,ATTENTION,37.5257096741884,127.036898756689,서울특별시 강남구 도산대로49길 41 3층,0507-1394-1054
캐롤스,ATTENTION,37.5137519612953,127.104446890835,서울특별시 송파구 올림픽로 300 롯데월드타워앤드롯데월드몰 3층,02-3213-4370
이스트,ATTENTION,37.526364756231,127.035549219304,서울특별시 강남구 언주로170길 26-6 3층,070-8855-0470
이목스모크다이닝,ATTENTION,37.5210863385776,127.019138224359,서울특별시 강남구 압구정로2길 6 ,010-3993-4729
영동포차나,ATTENTION,37.5206301397046,127.036162554013,서울특별시 강남구 언주로148길 14 청호불교문화원 나동 2층 208호,0507-1355-4883
아츠클럽서울,ATTENTION,37.5227671668665,127.043796512168,서울특별시 강남구 선릉로148길 52-4 지하1층,010-9190-5844
살롱뒤부케,ATTENTION,37.5255834964246,127.048029153978,서울특별시 강남구 도산대로81길 16-6 ,02-512-4067
부르,ATTENTION,37.5067805185055,127.031169865611,서울특별시 강남구 봉은사로 151 분데스언주 1층,02-6953-0748
리알토,ATTENTION,37.5231984225484,127.046530194424,서울특별시 강남구 삼성로149길 13 ,02-544-4761
레귬,ATTENTION,37.5195101291255,127.019106035326,"서울특별시 강남구 강남대로 652 신사스퀘어, 2층 207-2호",0507-1365-1567
블그레,ATTENTION,37.5224844642666,127.021024577276,서울특별시 강남구 논현로175길 101-4 ,0507-1369-7940
가겐,ATTENTION,37.5245020417067,127.045244867883,서울특별시 강남구 압구정로80길 19-1 ,010-4584-2154
스시사이토쥬욘,ATTENTION,37.5275867130132,127.047760394029,서울특별시 강남구 압구정로75길 30 ,010-7488-5476
떼르드카페,ATTENTION,37.4772935648142,127.040795021293,서울특별시 서초구 양재천로 111  경훈빌딩,02-572-1906
휴135다온반상,ATTENTION,37.5273661232786,127.027468526838,서울특별시 강남구 압구정로 165 현대백화점 본점 5층,02-545-0135
부어끄,ATTENTION,37.5262942863702,127.037052334832,서울특별시 강남구 선릉로157길 33 3층,02-544-8504
스틱윗미,ATTENTION,37.528391947359,127.036640212616,서울특별시 강남구 압구정로46길 4 ,02-511-4641
퍼센트아라비카커피,ATTENTION,37.5118239121138,127.059159043842,서울특별시 강남구 영동대로 513 스타필드 코엑스몰 별마당도서관 1층,02-6002-5300
브레빌카페&스토어,NEW,37.522194471999,127.024980297931,서울특별시 강남구 논현로159길 41 ,070-7790-0136
2도에이징(남성역점),NEW,37.4857870455174,126.969451801121,서울특별시 동작구 사당로 185-1 ,0507-1331-2370
계시,NEW,37.5666164557397,126.838422664924,서울특별시 강서구 마곡중앙8로5길 63 디엠프라자 1층 110호,010-2510-9813
그랑차오,NEW,37.5128698613973,127.124285768124,서울특별시 송파구 위례성대로 114 대양코리아나타워,02-3431-0607
바이탈바이브,NEW,37.4637733062696,127.106712517556,서울특별시 강남구 밤고개로34길 14 ,02-6953-3414
월화갈비,NEW,37.5133146983831,126.893528263865,서울특별시 영등포구 경인로79길 17 월화갈비 ,02-2678-7592
고우가,NEW,37.5221803249649,126.919916550827,서울특별시 영등포구 여의대로 24 전경련회관 지하1층,0507-1342-9554
퍼부어(서래마을점),NEW,37.4981354086584,126.997962854215,서울특별시 서초구 사평대로22길 33 ,02-3482-7030
바게틴,NEW,37.479965879262,126.999043969527,서울특별시 서초구 방배로 58 ,070-4100-0223
노코리카,NEW,37.4774279924988,126.977777113343,서울특별시 동작구 동작대로7길 92 ,02-6369-4231
르쏠,NEW,37.5032910260927,127.065495897888,서울특별시 강남구 영동대로 325 S-TOWER 1층 LE SOL,02-508-0365
코어커피스탠드,NEW,37.4932227490529,127.016187316348,서울특별시 서초구 서초중앙로22길 40 흰돌빌딩 1층,010-2131-9252
원다정왕소금구이,NEW,37.4510686603601,126.902994835469,서울특별시 금천구 시흥대로48길 1 ,070-8657-2292
누베이스,NEW,37.5182277112271,127.020823504967,서울특별시 강남구 강남대로156길 20 정원빌딩,02-516-3020
유어홈커피로스터스,NOT_RECORD,37.512762521754,126.893682197611,서울특별시 영등포구 도림로133길 20 1층,0507-1373-0302
남천1번국밥,NOT_RECORD,37.5104218436877,127.055669203417,서울특별시 강남구 테헤란로81길 51 연남(Yeon nam)빌딩,02-554-3738
랜드폴커피,NOT_RECORD,37.4985040877248,126.917679077528,"서울특별시 영등포구 대방천로 240-1 랜드폴커피 1층, 지층",02-833-0333
미치코서울,NOT_RECORD,37.5087651331364,127.023508765123,서울특별시 강남구 학동로2길 43 2층,02-544-6779
청담튜파,NOT_RECORD,37.5250720429425,127.040713439647,서울특별시 강남구 도산대로55길 24 지하 2층,0507-1372-2608
어슬청담한식다이닝 ,NOT_RECORD,37.5241044115478,127.041103537848,서울특별시 강남구 도산대로57길 7 ,010-8498-1938
오적회관,NOT_RECORD,37.5602455642568,126.836884719112,서울특별시 강서구 마곡중앙6로 85 마곡사이언스파크뷰,02-2668-7040
소양탐정,NOT_RECORD,37.5190567060549,127.023783138208,서울특별시 강남구 도산대로15길 11 지하 1층,010-9242-0199
윰드,NOT_RECORD,37.522058292923,127.041195289247,서울특별시 강남구 도산대로58길 18 ,0507-1444-3449
익스퍼2,NOT_RECORD,37.5677107355183,126.825645363269,서울특별시 강서구 마곡서로 152 두산더랜드타워 B동 221호,02-6989-9388
아쿠아가든카페(롯데월드몰점),NOT_RECORD,37.5137519612953,127.104446890835,서울특별시 송파구 올림픽로 300  롯데월드몰 지하1층,010-5769-8440
띠띠빵빵,NOT_RECORD,37.5226914790563,127.032675035392,서울특별시 강남구 언주로153길 5 1층,0507-1462-7834
라메,NOT_RECORD,37.5008080109033,126.950570031068,서울특별시 동작구 상도로37길 35 1층 ,02-3280-7040
컴앤쉽,NOT_RECORD,37.5098655877274,127.025821984185,서울특별시 강남구 강남대로124길 45 ,0507-1476-7726 
클래식오븐,NOT_RECORD,37.5252158945682,126.893862726741,서울특별시 영등포구 당산로27길 21-1 ,010-2624-3285
후룹로스터스,NOT_RECORD,37.5606312206415,126.832720625607,서울특별시 강서구 마곡중앙6로 45 리더스퀘어마곡 118호 ,070-7543-6545
대두족발,NOT_RECORD,37.4831031497728,126.900765644388,서울특별시 구로구 디지털로32길 97-6 상지빌딩,02-888-3088
모키커피앤티하우스,NOT_RECORD,37.5121397708761,126.895017414686,서울특별시 영등포구 경인로 732 1층,0507-1348-2954
세석정,NOT_RECORD,37.4939565941674,127.03531662533,서울특별시 강남구 역삼로14길 10 ,02-555-0964
벨라스가든(석촌호수점),NOT_RECORD,37.5100817898343,127.106289795622,서울특별시 송파구 백제고분로41길 42-19 더블유123빌딩 1층,0507-1428-4243
플루엣,NOT_RECORD,37.4893655725166,127.122764534607,서울특별시 송파구 동남로 102 레이 102 1층,070-8807-4137
이내서울,NOT_RECORD,37.4893655725166,127.122764534607,서울특별시 송파구 동남로 102 레이 102 7층,070-4419-0101
그라도스,NOT_RECORD,37.5223503946319,127.02431292218,서울특별시 강남구 논현로159길 46-5 ,010-5871-0779
아랑솥뚜껑,NOT_RECORD,37.4670332563592,127.042480861896,서울특별시 서초구 강남대로6길 22 성원빌딩 ,02-3463-3392
더일,NOT_RECORD,37.5205955456524,127.029681739673,서울특별시 강남구 도산대로 211 동현빌딩 1층,02-541-1222
카니랩,NOT_RECORD,37.5202736076902,127.031119256871,서울특별시 강남구 도산대로 220 엠포리아 빌딩 지하1층,070-7720-0116
뱀파이어치킨,NOT_RECORD,37.509407082837,127.025330277087,서울특별시 강남구 강남대로124길 35 103호,02-540-5145
코너피자조인트 압구정,NOT_RECORD,37.5257239181178,127.038009684938,서울특별시 강남구 도산대로51길 37 1층,02-6205-6606
이화원오크우드,NOT_RECORD,37.5109823973192,127.058205573267,서울특별시 강남구 테헤란로87길 46 호텔 오크우드 프리미어 3F,02-3466-7799
빈스커피컴퍼니,NOT_RECORD,37.4667454838323,126.886718830722,서울특별시 금천구 가산디지털1로 5 126호,010-2912-3232
레스토랑핫이슈,NOT_RECORD,37.5069000853819,127.031496321997,서울특별시 강남구 봉은사로 155 호텔카푸치노 17층,02-2038-9617
센티맷,NOT_RECORD,37.4839674222361,127.046197185426,서울특별시 강남구 남부순환로378길 34-10 ,010-6318-4476
프로퍼커피바(2호점),NOT_RECORD,37.5073379787265,127.123156221506,서울특별시 송파구 오금로31가길 20 대림상가 1층 ,02-417-0703
이치돈부리,NOT_RECORD,37.526993635766,126.894135680365,서울특별시 영등포구 당산로31길 24 부곡빌딩 1층,02-2633-2754
가츠나베1.186,NOT_RECORD,37.4819130872905,126.881581110867,서울특별시 금천구 가산디지털1로 186 지하 1층,010-7106-2116
카페모닥불,NOT_RECORD,37.5027247041978,126.934757587446,서울특별시 동작구 상도로19길 7 ,070-4248-3006
바이우,NOT_RECORD,37.477596858823,127.039426079869,서울특별시 서초구 양재천로21길 42 코너스톤B,010-3877-4436
커피나인(언주역점),NOT_RECORD,37.5066742472709,127.032661945559,서울특별시 강남구 봉은사로 170 헤븐리치더써밋 106호,0507-0284-4954
볼레티,NOT_RECORD,37.4862262142568,126.992503987151,서울특별시 서초구 방배로23길 32-6 1층,0507-1386-7542
미유키,NOT_RECORD,37.516094431943,127.111497713953,"서울특별시 송파구 올림픽로34길 5-14 웰리지 더테라스, 209호",010-9974-4244
목동백년국수 ,NOT_RECORD,37.5242126602779,126.859391234407,서울특별시 양천구 은행정로 52 수억빌딩,070-7543-7142
뜻한바,NOT_RECORD,37.5054026643012,127.109283643946,서울특별시 송파구 백제고분로42길 6-9 동광펠리스 101호,0507-1333-8062
프로퍼커피바(1호점),NOT_RECORD,37.5097086877695,127.131121181323,서울특별시 송파구 위례성대로22길 6 유진빌딩 1층,0507-1408-0703
오프레스트로스터리,NOT_RECORD,37.5546232165761,126.864184670431,서울특별시 강서구 공항대로59길 64 한사랑2차삼성아파트 상가1동,070-7786-1010
액션커피,NOT_RECORD,37.5084883334727,126.961652170904,서울특별시 동작구 서달로15길 23 한신빌딩 1층 4호,010-5258-0609
리틀루비스카페,NOT_RECORD,37.5250006298626,127.03617269556,서울특별시 강남구 압구정로46길 55 리틀루비스카페,0507-1308-8481
커피나인(가산디지털점),NOT_RECORD,37.4795130993704,126.887511773421,서울특별시 금천구 디지털로9길 32 갑을그레이트밸리,02-855-9989
서래이모네맛집,NOT_RECORD,37.4989786738327,127.000999698637,서울특별시 서초구 사평대로28길 31 서래한신상가 2층,02-535-2442
에이스크랩강남점,NOT_RECORD,37.5048981807486,127.045010007318,서울특별시 강남구 언주로98길 39-5 ,010-6522-6473
마시리벌교참꼬막,NOT_RECORD,37.505395630065,127.040254658606,서울특별시 강남구 언주로97길 12 ,02-566-4750
봉계타,NOT_RECORD,37.5086151302204,127.059765116537,서울특별시 강남구 테헤란로 517 현대백화점 10층,02-3467-6698
위커파크웨스트,NOT_RECORD,37.5074198018341,127.102484025924,서울특별시 송파구 석촌호수로 230 미켈란 호수家 상가 101호,
커피진심베이커리,NOT_RECORD,37.5083543250525,127.066764125492,서울특별시 강남구 테헤란로114길 20 지하1층 B102호,070-7721-8980
만나분식,NOT_RECORD,37.497384,127.065317,서울특별시 강남구 삼성로 212 은마상가 지하1층,02-557-7040
산청숯불가든,NOT_RECORD,37.5611255258819,126.836985456641,서울특별시 강서구 마곡중앙8로 85 파인스퀘어Ⅱ 1층 102~108호,0507-1374-8189
제일관(구로디지털점),NOT_RECORD,37.4842856391064,126.899282125859,"서울특별시 구로구 디지털로34길 55 코오롱싸이언스밸리2차 B106, B106-1",010-8436-6968
돈꿈카츠앤소바,NOT_RECORD,37.4919941549832,127.028848796506,서울특별시 서초구 효령로77길 34 아크로텔강남역 지하 102호,070-4195-4545
르플로르,NOT_RECORD,37.5216245595859,126.870444168108,서울특별시 양천구 목동동로 177 삼성쉐르빌2,070-7617-5488
양떡,NOT_RECORD,37.4730945210073,127.039129900303,서울특별시 서초구 마방로2길 12 보성빌딩,02-572-0089
비와별닭갈비(잠실직영점),NOT_RECORD,37.5061871117755,127.097511756848,서울특별시 송파구 삼학사로 100 ,02-2202-5552
오늘통닭(강남역점),NOT_RECORD,37.4946203470469,127.027606136235,서울특별시 서초구 서초대로74길 33 비트빌 빌딩,02-597-1977
명정루(역삼점),NOT_RECORD,37.5027584776087,127.037798994712,서울특별시 강남구 논현로94길 19 ,02-555-1800
보코네,NOT_RECORD,37.5006989321566,127.034653018054,서울특별시 강남구 테헤란로21길 6 화산빌딩 1층 102호,010-2913-1065
쁘띠문래,NOT_RECORD,37.5211270318868,126.887036322921,서울특별시 영등포구 선유로17길 24 1층 ,02-2638-0367
니꾸바키라,NOT_RECORD,37.4851444776342,127.043891565106,서울특별시 강남구 논현로36길 25 바인빌딩 1층,010-8972-6377
봉이밥,NOT_RECORD,37.5690270688312,126.827780298847,"서울특별시 강서구 마곡중앙로 171 프라이빗타워2차 103,104호",02-6964-0288
솔트플러스39,NOT_RECORD,37.493110486689,127.084232260259,서울특별시 강남구 개포로128길 33 1층 104호,010-9625-4620
브루주아,NOT_RECORD,37.5155320836663,127.033722960146,서울특별시 강남구 논현로132길 40 차이빌딩 1층 ,02-2015-1234
달봉제과점,NOT_RECORD,37.4831824580276,126.944957150404,서울특별시 관악구 봉천로 405 ,010-8231-9492
빠다상점,NOT_RECORD,37.4976145695004,127.102531804188,"서울특별시 송파구 송파대로 345 헬리오시티 상가 1A동 지하1층 67,68호",0507-1332-5343
크렘크럼블,NOT_RECORD,37.5211908466829,127.023659381837,서울특별시 강남구 도산대로17길 41 ,02-6205-3336
쉐프조부띠끄,NOT_RECORD,37.5230740826298,126.904586672939,서울특별시 영등포구 양산로31길 4 1층,0507-1344-8887
브레드컴퍼니쉐프조,NOT_RECORD,37.5269114271622,126.894597707083,서울특별시 영등포구 당산로31길 20 ,0507-1420-0403
우카커피,NOT_RECORD,37.5065230118214,127.131602954536,서울특별시 송파구 마천로11길 6 ,02-406-3110
칸지고고,NOT_RECORD,37.495511,127.014623,서울특별시 서초구 서초대로53길 15 ,02-3477-7474
옥인피자,NOT_RECORD,37.5137519612953,127.104446890835,서울특별시 송파구 올림픽로 300 롯데월드몰 5층,02-737-9944
피양옥,NOT_RECORD,37.5280561383743,127.031675252376,서울특별시 강남구 압구정로36길 7 ,02-545-9311 
오세안양갈비,NOT_RECORD,37.4668095536783,127.097403955941,서울특별시 강남구 헌릉로569길 39 더좋은빌딩,02-451-7988
킷사텐(역삼점),NOT_RECORD,37.5001683815758,127.041482156956,서울특별시 강남구 언주로85길 23-10 역삼동제이빌딩,010-9674-2622
히어커피,NOT_RECORD,37.4681122261649,127.041440246627,서울특별시 서초구 강남대로10길 6 ,070-4012-1991
크레스타운(압구정점),NOT_RECORD,37.5280407556239,127.036869472402,서울특별시 강남구 압구정로46길 5-2 원일빌딩 1층,02-511-3323
하시라도,NOT_RECORD,37.4971711081955,127.120021761888,서울특별시 송파구 양재대로62길 31-6 ,02-443-1678
스몰톡커피,NOT_RECORD,37.5046055930956,127.044137631,서울특별시 강남구 언주로98길 30 101호 ,02-563-0701
쉐프조,NOT_RECORD,37.5192524813198,126.892722228176,"서울특별시 영등포구 문래로 98 104,105호",02-2631-9001
피자덕후피자힙(잠실송리단길점),NOT_RECORD,37.5096143558743,127.108952168206,"서울특별시 송파구 백제고분로45길 21-9 1층, 2층",0507-1305-6117
삼산회관(양재역점),NOT_RECORD,37.4832213787469,127.038420614459,서울특별시 서초구 남부순환로356길 39 1층 101호,0507-1410-0141
시간을들이다,NOT_RECORD,37.4965094411461,126.928028822574,서울특별시 동작구 보라매로 80 1층 ,02-812-2158
앨리스프로젝트,NOT_RECORD,37.4770034056652,127.04036955084,서울특별시 서초구 양재천로 107-4 ,0507-1344-0972
브레드럽,NOT_RECORD,37.5606655023437,127.157486453471,서울특별시 강동구 동남로82길 9 ,02-426-3227
온화다이닝 ,NOT_RECORD,37.5248762621515,127.037988213227,서울특별시 강남구 선릉로153길 18 2층,010-8498-1938
유케집(논현점),NOT_RECORD,37.5057520040906,127.025199318349,서울특별시 강남구 강남대로114길 10 1층 102호,010-2883-2593
유케집,NOT_RECORD,37.5036925446304,127.053840999217,서울특별시 강남구 선릉로82길 47 1층 ,010-2883-2593
대관원,NOT_RECORD,37.52941398328275,126.89790787963236,서울특별시 영등포구 당산로37길 1 2층,02-2068-8791
닭장맥주(마곡나루본점),NOT_RECORD,37.568851450649,126.827338682565,"서울특별시 강서구 마곡중앙로 161-8 두산더랜드파크 C동 107,108호 닭장맥주",02-3663-7693
효은옥(본점),NOT_RECORD,37.5035436634397,127.022399023384,서울특별시 서초구 사평대로 360 양지빌딩 1층,02-6249-0020
참바른중식당,NOT_RECORD,37.4982260402942,127.053668461581,서울특별시 강남구 선릉로64길 17 디엔비빌딩,02-558-6411
백석,NOT_RECORD,37.5114638312604,127.081212794079,서울특별시 송파구 올림픽로 96 1층,02-423-9292
명정루(양재점),NOT_RECORD,37.4854211148285,127.03135523975,서울특별시 서초구 남부순환로347길 23 유진빌딩,010-5022-6085
미스터향,NOT_RECORD,37.5223003029771,126.926225192863,서울특별시 영등포구 여의나루로 60 포스트타워,02-761-9311
죽변항해물포차,NOT_RECORD,37.526998,126.897608,서울특별시 영등포구 국회대로34길 3-2 ,02-466-7769
일두한우정육식당,NOT_RECORD,37.509507238119,127.036488016457,서울특별시 강남구 언주로113길 10 ,02-6204-7674
세이버릿,NOT_RECORD,37.5062773604789,127.099387961215,서울특별시 송파구 송파대로49길 50 나인파크 B,070-8287-0388
회상,NOT_RECORD,37.5138389549701,126.89479367748,서울특별시 영등포구 도림로133길 3 ,0507-1356-0174
순정한우정육식당(논현점),NOT_RECORD,37.5089249605329,127.036644267689,서울특별시 강남구 봉은사로37길 9 청마빌딩 1층 101호,0507-1384-3934
정담옥,NOT_RECORD,37.5104486647966,127.080562243241,서울특별시 송파구 백제고분로7길 16 1층 ,02-420-9233
라운지희움,NOT_RECORD,37.5050370851613,127.030781669704,서울특별시 강남구 봉은사로18길 15-5 201호,070-4126-1234
미스피츠,NOT_RECORD,37.4785330046588,126.979866762653,서울특별시 동작구 동작대로3길 30 1층,02-525-4806
대한옥,NOT_RECORD,37.51932,126.9109,서울특별시 영등포구 영등포로51길 6 ,02-2633-5052
금동이네보쌈의명가,NOT_RECORD,37.4844899734409,126.912742495634,서울특별시 관악구 조원로 94 ,02-852-4210
안준수보리밥보쌈 잠실본점,NOT_RECORD,37.5091915264878,127.105565349903,서울특별시 송파구 백제고분로41길 43-5 ,02-416-0671
옛골,NOT_RECORD,37.5003198777346,126.9324385059,서울특별시 동작구 성대로1길 1 ,02-823-8366
우리집만두 선릉본점,NOT_RECORD,37.5029101502925,127.050065020431,서울특별시 강남구 선릉로 424 ,02-556-3903
유림닭도리탕 ,NOT_RECORD,37.5478258698188,126.871722147865,서울특별시 강서구 공항대로71길 5 ,02-3665-3930
단백하루 ,NOT_RECORD,37.5182569519621,127.027230243102,서울특별시 강남구 논현로149길 15 우전빌딩 1층 102호 ,02-6949-3809
초가집부뚜막청국장,NOT_RECORD,37.5499605952374,126.835973411049,서울특별시 강서구 강서로 271 ,02-2665-1611
들름집,NOT_RECORD,37.4922279155329,127.029056271279,서울특별시 서초구 사임당로 178 이즈타워 지하 1층 104호,02-585-8449
시골쌈밥,NOT_RECORD,37.5225165988627,126.891304981046,서울특별시 영등포구 선유동1로 3 ,02-2678-6890
아실,NOT_RECORD,37.5059323898242,127.042731579122,서울특별시 강남구 봉은사로48길 44-17 1층,02-6203-5585
대밭골 우렁쌈밥,NOT_RECORD,37.5038237828612,127.13876676249,서울특별시 송파구 동남로 320 ,02-403-9962
명선헌,NOT_RECORD,37.4873967588158,127.028496170379,서울특별시 서초구 서운로 39  원진빌딩 지하 1층,02-587-2942
세이지앤버터,NOT_RECORD,37.5239720541697,127.032419816463,서울특별시 강남구 언주로157길 6 ,0507-1491-4123
마테르,NOT_RECORD,37.5232844070518,127.034648302789,서울특별시 강남구 언주로154길 16 서울레이저빌딩 지하 1층,02-518-5879
커피라운지55,NOT_RECORD,37.4813928010079,127.012306525968,서울특별시 서초구 반포대로 9 호서빌딩 1층,02-525-7705
고운님,NOT_RECORD,37.50431,127.0559,서울특별시 강남구 삼성로81길 22 한정빌딩,02-562-9292
메이민,NOT_RECORD,37.5377363405254,127.146230267567,서울특별시 강동구 명일로 214 1층 메이민,02-482-1611
야키도리수다,NOT_RECORD,37.5112868015958,127.05719113004,서울특별시 강남구 테헤란로87길 57 감령빌딩 지하1층,02-599-3584
오더,NOT_RECORD,37.5114567372249,127.055477803419,서울특별시 강남구 봉은사로82길 27 아스텔빌딩 1층,02-567-2531
천미미(삼성점),NOT_RECORD,37.5096776765406,127.055536318832,서울특별시 강남구 삼성로 534 싹아트센터 1층,02-540-7200
플라워베이커리,NOT_RECORD,37.5189214322204,127.021113732728,서울특별시 강남구 압구정로2길 45 ,02-515-1345
국고집,NOT_RECORD,37.4859599519075,127.035978381564,서울특별시 강남구 남부순환로355길 14 1층 ,02-575-8894
국고집(대치점),NOT_RECORD,37.5036380424601,127.05221600974,서울특별시 강남구 선릉로86길 30 지하 1층 ,02-557-8894
한티옥,NOT_RECORD,37.4969569438366,127.056248492743,서울특별시 강남구 도곡로 418 강원빌딩 1층,02-552-5289
한티옥(영등포점),NOT_RECORD,37.5156680341198,126.907665995469,서울특별시 영등포구 경인로 846 롯데백화점 지하 1층 한티옥,0507-1323-7067
이넬,NOT_RECORD,37.4985392276194,126.917939026858,서울특별시 영등포구 대방천로 244 1층,010-7191-5656
파스타트리오,NOT_RECORD,37.5101536926705,127.020492126427,서울특별시 서초구 강남대로 545-15 미주빌딩 1층 102호,02-3444-0125
칠곡(낙성대본점),NOT_RECORD,37.4767616449233,126.958532366945,서울특별시 관악구 낙성대로 22-5 ,010-9747-7079
금성관나주곰탕(구로직영점),NOT_RECORD,37.4826840834852,126.899902506754,서울특별시 구로구 디지털로32길 92 미래타워 1층 102호,0507-1377-7902
2도에이징,NOT_RECORD,37.5016541917484,126.934220313635,서울특별시 동작구 상도로 128 ,070-8808-3477
명인등심(삼성직영점),NOT_RECORD,37.5114486889099,127.056865845073,서울특별시 강남구 봉은사로86길 30 ,02-3288-3301
2도에이징(사당점),NOT_RECORD,37.477113558418,126.977874433857,서울특별시 동작구 동작대로7길 97 ,0507-1421-8775
메밀집,NOT_RECORD,37.5101147039049,127.108636541259,서울특별시 송파구 백제고분로45길 25 1층,02-425-3003
차이들(논현점),NOT_RECORD,37.5109564586676,127.018483467595,서울특별시 서초구 신반포로45길 9-18 ,02-543-9295
라마노,NOT_RECORD,37.4842856391064,126.899282125859,서울특별시 구로구 디지털로34길 55 B119-1 라마노,02-866-2828
이츠모라멘(신림점),NOT_RECORD,37.4865511753391,126.929719265446,서울특별시 관악구 신림로68길 7 1층,070-4793-2755
이모포차,NOT_RECORD,37.487175864841,126.92960267014,서울특별시 관악구 봉천로12길 34 1층,010-5265-6104
부안애서,NOT_RECORD,37.4457401365298,127.057461463296,서울특별시 서초구 청계산로 223 부안애서,02-572-0112
안웅,NOT_RECORD,37.5223503946319,127.02431292218,서울특별시 강남구 논현로159길 46-5 ,02-6205-3816
월화고기(문래점),NOT_RECORD,37.5174631210953,126.896493699106,서울특별시 영등포구 당산로 34 ,02-2671-7592
스시꽃피다,NOT_RECORD,37.5282196781217,127.123619088865,서울특별시 강동구 성안로3길 120 ,02-474-7940
꿈당,NOT_RECORD,37.4835001713702,126.928799854432,서울특별시 관악구 남부순환로 1600-10 2층 꿈당,02-6487-4984
이모네,NOT_RECORD,37.5391348871096,127.12605362186,서울특별시 강동구 올림픽로70길 44 ,02-484-4692
함초마을,NOT_RECORD,37.500362,127.03433,서울특별시 강남구 테헤란로 139 신중앙빌딩 지하 1층,02-553-3555
브런치나인,NOT_RECORD,37.5588248070734,126.831007635455,서울특별시 강서구 공항대로 212 문영퀸즈파크 11차 A 126호,02-6373-4123
그리에,NOT_RECORD,37.5246740736383,127.041990425496,서울특별시 강남구 도산대로59길 13 세명빌딩 6층,0507-1358-6982
간다이,NOT_RECORD,37.5253513996194,127.12928567905,서울특별시 강동구 성안로 15 동성빌딩 2층,010-8911-0115
문정커피본점,NOT_RECORD,37.4840307542963,127.120971066536,서울특별시 송파구 법원로 96  문정법조프라자,02-401-4189
정우네한돈제육본점,NOT_RECORD,37.4960790640201,127.119779824539,서울특별시 송파구 송이로20길 12-7 1층 102호,0507-1358-2135
더큐,NOT_RECORD,37.5478957237892,126.819507121486,서울특별시 강서구 방화대로 94  메이필드호텔 본관 1층,02-2660-9040
이원,NOT_RECORD,37.547525,126.818789,서울특별시 강서구 방화대로 94 메이필드호텔 2층,02-2660-9080
캐슬테라스,NOT_RECORD,37.547525,126.818789,서울특별시 강서구 방화대로 94 메이필드호텔 본관 1층,02-2660-9030
맛있는중식차이리,NOT_RECORD,37.5393629216578,126.832859801125,서울특별시 양천구 화곡로 98 원일빌딩 2층 201호,010-5885-8151
광선집,NOT_RECORD,37.5308694091405,126.8496406609,서울특별시 강서구 곰달래로 149 소망빌딩 1층  ,02-2602-0608
사랑방칼국수,NOT_RECORD,37.53,126.8627,서울특별시 강서구 국회대로 249-1 ,02-2648-1008
백순대본가새맛(까치산본점),NOT_RECORD,37.5303651480517,126.847206208517,서울특별시 강서구 강서로 27 심포니타워 1층 101호,02-2606-3452
만배아리랑,NOT_RECORD,37.5390663932795,126.835418976281,서울특별시 강서구 화곡로18길 24 강서뉴타워,02-2607-3126
용문각,NOT_RECORD,37.530794,126.853601,서울특별시 강서구 곰달래로36길 4 ,02-2698-3550
백두옥,NOT_RECORD,37.55185,126.8523,서울특별시 강서구 화곡로58길 30-21 성지빌딩,02-2607-0095
백제원(등촌점),NOT_RECORD,37.5575962643159,126.848578797153,서울특별시 강서구 공항대로 367 3층,02-2668-4114
오백년장어(등촌점),NOT_RECORD,37.5575962643159,126.848578797153,서울특별시 강서구 공항대로 367 4층,02-2668-8778
도쿄하나(등촌점),NOT_RECORD,37.5575962643159,126.848578797153,서울특별시 강서구 공항대로 367 2층,02-2668-0880
명궁,NOT_RECORD,37.5442964251603,126.839016828602,서울특별시 강서구 화곡로31길 79 푸른빌딩,02-2698-2286
만리장성,NOT_RECORD,37.5517725994353,126.848734189734,서울특별시 강서구 우장산로16길 38 ,02-2699-0085
양옥주점,NOT_RECORD,37.5679745986878,126.826720979429,서울특별시 강서구 마곡중앙로 161-11 힐스테이트에코 111호~112호,010-4100-6683
카페팜스프링스,NOT_RECORD,37.5099691587997,126.917234541501,서울특별시 영등포구 도신로60길 22-3 팜스프링스,02-847-1107
티에프티커피로스터스,NOT_RECORD,37.5197651591196,126.930241165994,서울특별시 영등포구 여의대방로67길 11 잡지회관,070-4060-1933
소울한우(동여의도점),NOT_RECORD,37.5195487940187,126.930488645764,서울특별시 영등포구 여의대방로67길 9 두일빌딩 지하1층 001~007호,02-780-6637
조원녹두삼계탕,NOT_RECORD,37.480768,126.904449,서울특별시 관악구 조원중앙로 9 ,02-866-3407
피노키오,NOT_RECORD,37.4977801334555,126.997524880728,서울특별시 서초구 사평대로22길 42 103호,010-9852-6525
부안애서(서초점),NOT_RECORD,37.4887143289998,127.029849245333,서울특별시 서초구 남부순환로347길 101 ,0507-1333-5972
밉,NOT_RECORD,37.5099799418237,127.105927037774,서울특별시 송파구 석촌호수로 272 대림빌딩 1층,02-6407-0560
루프코티지,NOT_RECORD,37.5088377886634,127.106372745781,서울특별시 송파구 백제고분로41길 36 6층,0507-1318-4913
맞닿음(잠실본점),NOT_RECORD,37.5106957875782,127.108018582125,서울특별시 송파구 백제고분로45길 34 동방빌딩,02-417-0560
이낙근찹쌀떡베이커리,NOT_RECORD,37.511007,127.094003,서울특별시 송파구 올림픽로 212 갤러리아팰리스 지하 1층,02-423-4082
보사노바커피로스터스(잠실점),NOT_RECORD,37.5158226257174,127.114669802108,"서울특별시 송파구 백제고분로51길 7  잠실엘퍼스트오피스텔 1층 114,115호",02-423-0038
원스,NOT_RECORD,37.5039022610292,127.097502225593,서울특별시 송파구 삼학사로16길 3-5 ,02-6015-5773
동래파전,NOT_RECORD,37.5104513955728,127.084896556557,서울특별시 송파구 백제고분로7길 52-5 ,02-425-1437
카페페퍼,NOT_RECORD,37.5096256769585,127.110151992824,서울특별시 송파구 백제고분로45길 12 ,없음
마운틴누크,NOT_RECORD,37.5106146799736,127.108234270692,서울특별시 송파구 백제고분로45길 32 ,010-2060-4674
삼백집(잠실직영점),NOT_RECORD,37.507896,127.103372,서울특별시 송파구 석촌호수로 240 ,02-418-0301
스시이세이(롯데백화점에비뉴엘월드타워점),NOT_RECORD,37.5137519612953,127.104446890835,서울특별시 송파구 올림픽로 300 잠실 롯데 에비뉴엘 6층,02-3213-2636
오떡,NOT_RECORD,37.502321,127.112276,서울특별시 송파구 송파대로38길 23 ,02-415-1058
금왕평양면옥,NOT_RECORD,37.51066984314868,127.12432125474614,서울특별시 송파구 위례성대로16길 23 ,02-6248-1176
송파감자국,NOT_RECORD,37.500172,127.105418,서울특별시 송파구 가락로 82 영신빌딩 1층,02-416-7350
로드샌드위치(잠실점),NOT_RECORD,37.502841947835,127.084156787858,서울특별시 송파구 백제고분로18길 25  102호,02-6369-3210
탕,NOT_RECORD,37.509638,127.084749,서울특별시 송파구 백제고분로15길 48 ,02-412-9303
진미옥설렁탕,NOT_RECORD,37.501114,127.109221,서울특별시 송파구 가락로16길 3-12 성창빌딩,02-400-2131
푸가커피,NOT_RECORD,37.5038595744936,127.111531540548,서울특별시 송파구 백제고분로42길 34 ,02-6053-7618
원산만두,NOT_RECORD,37.506989,127.115202,서울특별시 송파구 백제고분로46길 39 ,02-420-1109
테미즈,NOT_RECORD,37.5112935732469,127.107854760373,서울특별시 송파구 백제고분로45길 38-9 이음레이크 1층 101호,070-7677-2211
남경막국수(잠실점),NOT_RECORD,37.50942,127.085119,서울특별시 송파구 백제고분로7길 52-29 ,02-417-0060
완도산,NOT_RECORD,37.504298,127.095663,서울특별시 송파구 삼전로10길 58 ,02-424-5989
곱분이곱창(송파중앙점),NOT_RECORD,37.5007506928673,127.106711740392,서울특별시 송파구 가락로 94 ,02-423-0110
칫챗,NOT_RECORD,37.5066902027774,127.094781280361,서울특별시 송파구 석촌호수로 160 수연빌딩,02-2042-5100
겟썸커피LMoA,NOT_RECORD,37.5135291,127.1038651,서울특별시 송파구 올림픽로 300 롯데월드타워앤드롯데월드몰 6층,02-3213-2865
리프커피바,NOT_RECORD,37.5092421352568,127.108283411661,서울특별시 송파구 백제고분로43길 24 ,02-6205-5886
마차이(방이점),NOT_RECORD,37.5120866023654,127.112433147977,서울특별시 송파구 올림픽로32길 58 ,0507-1432-2553
영오이칠,NOT_RECORD,37.5097234363653,127.083814002973,서울특별시 송파구 백제고분로7길 42-24 ,070-7760-0527
예솔,NOT_RECORD,37.514567,127.102493,서울특별시 송파구 올림픽로 289 잠실시그마타워 지하1층,02-415-9149
토나리우동,NOT_RECORD,37.5094038127388,127.109998298112,서울특별시 송파구 백제고분로45길 11 렉스프라자 1층,02-2202-7848
레빵뺑,NOT_RECORD,37.503107913259,127.083919475308,서울특별시 송파구 백제고분로18길 26 ,02-414-9138
수미양가,NOT_RECORD,37.5082357728572,127.109780785561,서울특별시 송파구 백제고분로43길 8 ,02-6959-0092
석촌호민물장어,NOT_RECORD,37.511125,127.107424,서울특별시 송파구 석촌호수로 290 성우빌딩,02-414-6329
몽중헌(방이점),NOT_RECORD,0.0,0.0,서울특별시 송파구 위례성대로 10 ,02-2202-8004
커피나인(잠실장미상가점),NOT_RECORD,37.5173453447287,127.100709917003,서울특별시 송파구 올림픽로35길 124 잠실장미아파트상가A동 1층 112호,02-425-5224
레스파스,NOT_RECORD,37.5138710747422,127.106364392884,서울특별시 송파구 잠실로 209  소피텔엠버서더 6층,02-2092-6104
돈까스의집,NOT_RECORD,37.5069630013895,127.090682086454,서울특별시 송파구 삼전로 100 아카데미빌딩,02-413-5182
완도산회포장마차(송파직영점),NOT_RECORD,37.5071345100566,127.108376841868,서울특별시 송파구 백제고분로41길 10 해븐빌딩,02-422-5989
맨프롬오키나와(2호점),NOT_RECORD,37.5107807662347,127.109471435885,서울특별시 송파구 백제고분로45길 24-18 2층 201호,0507-1386-0440
청기와타운(잠실점),NOT_RECORD,37.5117930719582,127.109246812748,서울특별시 송파구 오금로 125 1층,02-420-8008
강가(잠실점),NOT_RECORD,37.5137519612953,127.104446890835,서울특별시 송파구 올림픽로 300 6층,02-3213-4635
어양,NOT_RECORD,37.51653,127.1139,서울특별시 송파구 위례성대로 14 한미타워 지하 1층,02-422-8886
갯돌,NOT_RECORD,37.5058876761527,127.090885267773,서울특별시 송파구 백제고분로21길 24 ,02-424-1310
평양만두한상,NOT_RECORD,37.5120136412368,127.124538953723,서울특별시 송파구 양재대로71길 28-22 ,02-422-1187
진지아,NOT_RECORD,37.50757900481695,127.1082467397109,서울특별시 송파구 백제고분로41길 12-9 ,02-418-5354
일일양(석촌호수점),NOT_RECORD,37.5061875220992,127.098968471356,서울특별시 송파구 송파대로49길 52 석촌호수 나인파크 A,02-418-1177
모꼬지에,NOT_RECORD,37.500441,127.11229,서울특별시 송파구 송파대로36길 5-13 ,02-424-6150
송돈,NOT_RECORD,37.5127330893982,127.120016251041,서울특별시 송파구 가락로 280 ,02-6949-5352
엄지손칼국수,NOT_RECORD,37.505804,127.117619,서울특별시 송파구 가락로28길 15 ,02-415-1581
마시마니,NOT_RECORD,37.5126060876663,127.124076192984,서울특별시 송파구 위례성대로16길 4-17 나무종합병원,02-419-6088
피에프창,NOT_RECORD,37.51375250260386,127.10444609981751,서울특별시 송파구 올림픽로 300 롯데월드타워앤드롯데월드몰 5층,02-3213-4599
도나우,NOT_RECORD,37.502981,127.093717,서울특별시 송파구 백제고분로 243 삼전빌딩,02-2202-3897
소류,NOT_RECORD,37.511324183149,127.111376153772,서울특별시 송파구 오금로17길 5 J&M빌딩,02-415-3777
사카바게라게라,NOT_RECORD,37.505331574335,127.090181918074,서울특별시 송파구 백제고분로21길 15 ,02-424-3396
니꾸바시야,NOT_RECORD,37.5128541829574,127.111179355525,서울특별시 송파구 올림픽로32길 45 ,010-4692-5420
리우,NOT_RECORD,37.5066557779398,127.089594261944,서울특별시 송파구 삼전로 91 세경빌딩 1층,02-6338-0707
유원설렁탕,NOT_RECORD,37.50628,127.0901,서울특별시 송파구 삼전로 90 금화빌딩,02-414-2256
양휘당,NOT_RECORD,37.514644435086836,127.11045583437378,서울특별시 송파구 오금로11길 30-16 ,02-412-2988
깊은맛남원추어탕,NOT_RECORD,37.50902,127.1056,서울특별시 송파구 백제고분로41길 41 ,02-2202-8305
송파나루,NOT_RECORD,37.5076453754084,127.102735192556,서울특별시 송파구 석촌호수로 234 라품미빌딩,02-413-7080
모던샤브하우스(잠실점),NOT_RECORD,37.5138710747422,127.106364392884,서울특별시 송파구 잠실로 209 KT송파빌딩 호텔동 2층,02-3431-7921
바토스(잠실점),NOT_RECORD,37.51131078364221,127.09814039543262,서울특별시 송파구 올림픽로 240 롯데백화점 지하 1층,02-2143-7073
전주설렁탕,NOT_RECORD,37.510889,127.082593,서울특별시 송파구 백제고분로7길 33 ,02-412-7495
미우미우,NOT_RECORD,37.511368,127.12689,서울특별시 송파구 양재대로71길 2-27 인택파크랜드 2층,010-9427-2581
도림(롯데호텔월드),NOT_RECORD,37.511236,127.098004,서울특별시 송파구 올림픽로 240 롯데호텔월드 32층,02-411-7800
김영모(잠실에비뉴엘점),NOT_RECORD,37.51375250260386,127.10444609981751,서울특별시 송파구 올림픽로 300 5층 ,02-3213-2543
청와옥(석촌호수 직영점),NOT_RECORD,37.5056889929139,127.097455125368,서울특별시 송파구 삼학사로 96 1층,02-422-0550
우리강산,NOT_RECORD,37.5131688791398,127.122498795803,서울특별시 송파구 위례성대로12길 6 ,02-415-7138
도키도키,NOT_RECORD,37.507632,127.107738,서울특별시 송파구 백제고분로41길 18 1층,02-2203-3369
후포항,NOT_RECORD,37.505507,127.096847,서울특별시 송파구 삼학사로 91 ,02-412-8979
르브리에,NOT_RECORD,37.5082357728572,127.109780785561,서울특별시 송파구 백제고분로43길 8 ,010-9702-2115
지강낙곱새(잠실점),NOT_RECORD,37.5138710747422,127.106364392884,서울특별시 송파구 잠실로 209 지하1층 ,02-414-4963
라세느(롯데호텔월드),NOT_RECORD,37.511235,127.098027,서울특별시 송파구 올림픽로 240 롯데호텔월드 2층,02-411-7811
한우리(롯데잠실점),NOT_RECORD,37.511007,127.094003,서울특별시 송파구 올림픽로 240 롯데백화점 잠실점 11층,02-419-9491
빈방,NOT_RECORD,37.5088763944563,127.115811694624,서울특별시 송파구 가락로33길 11 1층 102호,070-8987-4100
대성정육식당,NOT_RECORD,37.508925,127.086069,서울특별시 송파구 석촌호수로12길 1-6 ,02-412-2292
비사벌전주콩나물국밥(송파점),NOT_RECORD,37.50482,127.0871,서울특별시 송파구 백제고분로 181 동서빌딩,02-418-7651
원광,NOT_RECORD,37.505156,127.090057,서울특별시 송파구 삼전로8길 9 미래빌딩,02-416-1518
호낙가,NOT_RECORD,37.5093717645665,127.108898883074,서울특별시 송파구 백제고분로45길 17-14 ,02-422-4011
조르노에노떼 ,NOT_RECORD,37.5070091848306,127.12116919073,서울특별시 송파구 오금로29길 4-1 101호,010-9973-3580
스웨덴피크닉송리단길,NOT_RECORD,37.5083601991062,127.109589372688,서울특별시 송파구 백제고분로43길 10 ,0507-1353-4119
서정적살롱,NOT_RECORD,37.51019,127.1062,서울특별시 송파구 석촌호수로 274 씨엠빌딩 1층,02-415-7670
예환,NOT_RECORD,37.5054826357644,127.098896967779,서울특별시 송파구 백제고분로33길 32 대호빌딩 2층,010-6675-0855
마로,NOT_RECORD,37.5077669299288,127.107583106525,서울특별시 송파구 백제고분로41길 20 102호,010-4160-1680
하늘정원,NOT_RECORD,37.52014,127.0817,서울특별시 송파구 백제고분로 2 누에나루 2층,02-420-5200
어물전청(잠실점),NOT_RECORD,37.5138710747422,127.106364392884,서울특별시 송파구 잠실로 209 소피텔엠버서더 2층 ,010-5137-0137
백워리,NOT_RECORD,37.5096525962336,127.111327410471,서울특별시 송파구 백제고분로45길 4-14 트리비유 1층,070-7766-9451
호림,NOT_RECORD,37.506335,127.096294,서울특별시 송파구 석촌호수로 176 ,02-415-3411 
봉평발아메밀막국수,NOT_RECORD,37.5048857500852,127.105122280273,서울특별시 송파구 백제고분로39길 3 1층,02-412-1970
해주냉면,NOT_RECORD,37.5096527123279,127.079773391153,서울특별시 송파구 백제고분로7길 8-16 ,02-424-7192
포숑,NOT_RECORD,37.5137519612953,127.104446890835,서울특별시 송파구 올림픽로 300 롯데월드몰 1층,02-3213-4188
국민통닭,NOT_RECORD,37.5062773604789,127.099387961215,서울특별시 송파구 송파대로49길 50 석촌호수나인파크 비동 102호,010-3495-4560
와라비,NOT_RECORD,37.508536522806466,127.08294936476561,서울특별시 송파구 석촌호수로12길 31 ,02-416-8833 
갯마을낙지,NOT_RECORD,37.509154,127.079687,서울특별시 송파구 백제고분로9길 6 ,02-412-7895
나폴레옹과자점(잠실점),NOT_RECORD,37.510752,127.078933,서울특별시 송파구 백제고분로 67 위너스오피스텔2,02-415-1144
올림픽양곱창,NOT_RECORD,37.510194,127.125125,서울특별시 송파구 위례성대로18길 24 ,02-415-3719
끌레르끌레,NOT_RECORD,37.5113188094349,127.123832126995,서울특별시 송파구 양재대로71길 30 동호빌딩 1층 102호,0507-1373-808
한방삼계탕,NOT_RECORD,37.5114786473939,127.113331548837,서울특별시 송파구 백제고분로 460 쿠피아타워,02-415-9909
대호갈비,NOT_RECORD,37.50942,127.079319,서울특별시 송파구 백제고분로 83 ,02-423-2500
만포면옥소반,NOT_RECORD,37.515759,127.098878,서울특별시 송파구 송파대로 570 타워730 지하 1층,02-420-3917
우드그린4717,NOT_RECORD,37.5119557370102,127.12468103375,서울특별시 송파구 위례성대로16길 10 ,02-423-4717
골든타이,NOT_RECORD,37.51466,127.1194,서울특별시 송파구 위례성대로 66 ,02-461-8089 
알루메,NOT_RECORD,37.509617,127.082874,서울특별시 송파구 백제고분로9길 36 ,02-421-1126
르봉마리아쥬,NOT_RECORD,37.5203140390086,127.113265047998,서울특별시 송파구 올림픽로35길 10 파크리오 B동 지하1층 104호,02-790-6718
한아람,NOT_RECORD,37.515742,127.116007,서울특별시 송파구 위례성대로 34 지산빌딩 2층,02-415-7277
더빛남,NOT_RECORD,37.5101952096632,127.110817773732,서울특별시 송파구 오금로18길 5 인영빌딩,0263692495
황산냉면,NOT_RECORD,37.510909,127.118439,서울특별시 송파구 가락로 257 ,02-3431-2262
요리하는남자,NOT_RECORD,37.5108834930961,127.081867388412,서울특별시 송파구 백제고분로7길 27 반석빌딩 지하 1층, 02-419-1511
온나,NOT_RECORD,37.5087190743487,127.106530468724,서울특별시 송파구 백제고분로41길 32 평안빌딩,02-423-5454
안재식당,NOT_RECORD,37.5067919626305,127.091768429619,서울특별시 송파구 백제고분로21길 38 금강빌딜 101호,02-6953-1876
샛집남원추어탕,NOT_RECORD,37.5148617378215,127.107745425802,서울특별시 송파구 오금로11길 7-12 ,02-421-8163
완도산회(삼전점),NOT_RECORD,37.5043387605142,127.095674820603,서울특별시 송파구 삼전로10길 58 태양빌딩 1층,02-424-5989
완도산회(송파별관),NOT_RECORD,37.5069272566288,127.109183850173,서울특별시 송파구 백제고분로 395 ,02-420-5989
가일,NOT_RECORD,37.5154937300715,127.113299840522,서울특별시 송파구 오금로11길 55 ,02-412-2024
더마칸,NOT_RECORD,37.5132413002027,127.110554320885,서울특별시 송파구 올림픽로32길 37-4 ,02-422-0900
어리랑횟집,NOT_RECORD,37.532253,127.119099,서울특별시 송파구 풍성로26길 16 ,02-472-8777
얼터너티브,NOT_RECORD,37.5074539497873,127.113802070905,서울특별시 송파구 백제고분로46길 26-1 신화빌딩,010-9619-0120
비엔블랑,NOT_RECORD,37.5062292217872,127.09801611994726,서울특별시 송파구 석촌호수로 188 신동아로쟌뷰 105호,070-4200-0362 
청년다방(롯데월드점),NOT_RECORD,37.5113096112036,127.098141751177,서울특별시 송파구 올림픽로 240 지하1층 청년다방 롯데월드점,02-2143-1206
래향,NOT_RECORD,37.503947,127.127191,서울특별시 송파구 중대로25길 20 디에스빌딩,02-3402-1722
위클리커피(송파위례점),NOT_RECORD,37.4786171055932,127.143758763103,서울특별시 송파구 위례광장로 230 1층 상가 B123호,070-4252-1744
만들다,NOT_RECORD,37.4957980686962,127.14997982818,서울특별시 송파구 마천로 305 ,070-5001-2468
배꼽집(문정점),NOT_RECORD,37.48535322415914,127.11922743703323,서울특별시 송파구 법원로11길 7 문정현대지식산업센터1-2 C동 지하2층 B215호,02-6956-1005
페스카토라,NOT_RECORD,37.4860552797801,127.12100938212,서울특별시 송파구 법원로 114 C동 120-1호,070-8286-5664
춘향골남원추어탕,NOT_RECORD,37.508648,127.130342,서울특별시 송파구 위례성대로22길 18 이시돌빌딩,02-443-4262
취영루,NOT_RECORD,37.492549,127.124894,서울특별시 송파구 송이로 162 ,02-449-7747
천미미(가락점),NOT_RECORD,37.4941449655427,127.12022159525,서울특별시 송파구 송파대로28길 20 세화빌딩,02-431-4300
기린차이나,NOT_RECORD,37.5006501055225,127.138286135038,서울특별시 송파구 성내천로 88 ,02-443-7333
완도산회특급포차(가락본점),NOT_RECORD,37.4966552528775,127.118713226999,서울특별시 송파구 중대로9길 42 ,02-404-5989
코메벤또,NOT_RECORD,37.4860582505835,127.117802423963,서울특별시 송파구 법원로11길 12 한양타워 2층,070-7803-8090
알레아파리,NOT_RECORD,37.4970663126363,127.134261838459,서울특별시 송파구 오금로42길 11 ,02-430-9091
조광201,NOT_RECORD,37.4815263519172,127.126776704558,서울특별시 송파구 새말로8길 13 2층,010-2459-0503
하루,NOT_RECORD,37.4776148442516,127.124961768886,서울특별시 송파구 충민로 66 가든파이브 패션관 9층,02-2157-8233
다온이네,NOT_RECORD,37.4776148442516,127.124961768886,서울특별시 송파구 충민로 66 패션관 9층,02-2157-1160
청기와타운(가락점),NOT_RECORD,37.4955097167446,127.119870059952,서울특별시 송파구 송파대로30길 25 1층,02-403-4239
달타냥의커피,NOT_RECORD,37.4935982824456,127.133357888939,서울특별시 송파구 동남로18길 32 1층 101동,070-7799-1923
브런치하우스본점,NOT_RECORD,37.4892847365294,127.127875772051,서울특별시 송파구 송이로32길 8 그레이스빌딩,02-6406-0949
스시문정,NOT_RECORD,37.4868314347245,127.120453991896,서울특별시 송파구 법원로 128 문정 sk v1 gl메트로시티 B동 지하1층 119호,02-2039-2459
골목떡볶이,NOT_RECORD,37.4890561526937,127.123469604083,서울특별시 송파구 문정로1길 33 ,02-3402-3452
사랑방,NOT_RECORD,37.497519993190735,127.14810273335581,서울특별시 송파구 마천로41길 5 ,02-431-4008
주점금붕어,NOT_RECORD,37.4834511127693,127.12463410359,서울특별시 송파구 송파대로14길 6 2층,010-8206-1135
윤화돈까스,NOT_RECORD,37.503328,127.129094,서울특별시 송파구 중대로 245 ,02-443-5717
에핑,NOT_RECORD,37.5021549058648,127.125168223705,서울특별시 송파구 오금로36길 13-1 가락동양씨빌딩 1층,02-400-0201
일도불백,NOT_RECORD,37.4983080339873,127.151155298044,서울특별시 송파구 마천로45길 30 1층,02-1800-6684
조광어선,NOT_RECORD,37.4822372129744,127.127311561889,서울특별시 송파구 새말로10길 8 1층,010-2459-0503
냠냠물고기(2호점),NOT_RECORD,37.4946908483153,127.123833842595,서울특별시 송파구 송이로 135 ,010-5560-5506
냠냠물고기,NOT_RECORD,37.4970069754843,127.120699217866,서울특별시 송파구 송파대로30길 41-21 ,
유성닭갈비 ,NOT_RECORD,37.4947481770462,127.145398715283,서울특별시 송파구 거마로 20  ,02-443-0709
올라포케,NOT_RECORD,37.4846614982049,127.120933640924,서울특별시 송파구 송파대로 167 테라타워a동 지하1층 G185호,02-2054-8530
일도씨닭갈비(문정점),NOT_RECORD,37.4927672575467,127.128089095334,서울특별시 송파구 동남로 161 현대빌리지 1층,02-402-0709
우불식당,NOT_RECORD,37.4948868947464,127.120093192726,서울특별시 송파구 송파대로28길 27  송파성원쌍떼빌,02-404-7888
가락김밥,NOT_RECORD,37.4951589857894,127.117235587428,서울특별시 송파구 송파대로32길 4 ,02-400-2610
옥돌현옥,NOT_RECORD,37.5015343677051,127.124072910932,서울특별시 송파구 오금로36길 26-1 ,02-404-4824
선복한우촌총각들,NOT_RECORD,37.49854,127.121843,서울특별시 송파구 오금로36길 63 진흥빌딩,02-404-3393
코른베르크,NOT_RECORD,37.488125746629,127.111059136873,서울특별시 송파구 중대로 24 올림픽훼밀리타운 A상가 101호,02-403-8660
카츠단길,NOT_RECORD,37.4877387829749,127.120685887596,서울특별시 송파구 송파대로 201 테라타워2 A동 117호 ,02-526-8567
우대포,NOT_RECORD,37.4750100992712,127.141592563317,서울특별시 송파구 위례광장로 120 위례중앙푸르지오1단지,010-8151-1111
초원식당,NOT_RECORD,37.46311,127.107323,서울특별시 강남구 밤고개로34길 8 ,02-445-0447 
삼대국수회관,NOT_RECORD,37.487283,127.103109,서울특별시 강남구 광평로 280 로즈데일 지하2층,02-451-1001
대흥정,NOT_RECORD,37.485909,127.099484,서울특별시 강남구 광평로46길 5-4 ,02-3411-2500
단미그린비,NOT_RECORD,37.479272,127.102658,서울특별시 강남구 밤고개로14길 13-50 ,02-445-2100
가원,NOT_RECORD,37.485558,127.098323,서울특별시 강남구 광평로 234 ,02-451-2355
헤비레이어스,NOT_RECORD,37.4910310194905,127.086890378738,서울특별시 강남구 일원로9길 65 ,010-6552-1088
커피와쟁이,NOT_RECORD,37.465651,127.101117,서울특별시 강남구 헌릉로 569 리더스프라자 건물 2층,070-4211-5064
목포명가,NOT_RECORD,37.4737791164507,127.108593084934,서울특별시 강남구 밤고개로23길 22 ,02-445-0666
예소담,NOT_RECORD,37.485829,127.098689,서울특별시 강남구 광평로 238 ,02-2226-5292
초원복집 ,NOT_RECORD,37.4873191631489,127.103108072457,서울특별시 강남구 광평로 280 로즈데일빌딩 지하2층,02-6242-3345
하치타치,NOT_RECORD,37.4932374890678,127.085789845348,서울특별시 강남구 일원로3길 79 1층,02-6958-6644
주박사닭갈비,NOT_RECORD,37.4892333041022,127.067955632075,서울특별시 강남구 개포로 508 소망빌딩,02-451-6692
포나타이,NOT_RECORD,37.4941313928275,127.078783141187,서울특별시 강남구 개포로 621 지하 1층,02-445-8188
달팽이밥상,NOT_RECORD,37.487986,127.101777,서울특별시 강남구 밤고개로1길 10 현대벤처빌 지하 1층,02-2040-6755
602DESSERT,NOT_RECORD,37.4915685832333,127.082716316269,서울특별시 강남구 일원로5길 25 공간11,010-9951-9514
스시야,NOT_RECORD,37.4873191631489,127.103108072457,서울특별시 강남구 광평로 280 로즈데일오피스텔 1층  ,02-445-1108
와후진,NOT_RECORD,37.488334,127.10248,서울특별시 강남구 광평로51길 8 로얄프라자,02-445-0125
스지옥,NOT_RECORD,37.4855747470468,127.045459163565,서울특별시 강남구 논현로38길 46-3 지하1층,070-4115-0511
미면정양재칼국수샤브샤브,NOT_RECORD,37.4868646241789,127.03945910421,서울특별시 강남구 남부순환로365길 22 오이빌딩,02-573-8833
최수사,NOT_RECORD,37.499103,127.037411,서울특별시 강남구 논현로 429 C and C빌딩,02-566-2525
그릴아지사이,NOT_RECORD,37.50023,127.0333,서울특별시 강남구 테헤란로13길 8-10 동영빌딩 1층,02-565-7442 
fyi,NOT_RECORD,37.4954543973812,127.038858291112,"서울특별시 강남구 역삼로 180 MARU 180, 1층",070-8885-1112
킹콩생고기전문점,NOT_RECORD,37.500866,127.041048,서울특별시 강남구 언주로85길 26 ,02-564-5909
텀블러비어,NOT_RECORD,37.498861,127.0345,서울특별시 강남구 테헤란로20길 15 메이플라워멤버스빌 1층,02-538-6665
동방미식,NOT_RECORD,37.5062631802423,127.035866428428,서울특별시 강남구 논현로106길 18 ,02-766-3568 
아야진생태찌개(역삼직영점),NOT_RECORD,37.494522,127.039346,서울특별시 강남구 논현로 329 ,02-563-9956
베이징코야(역삼동점),NOT_RECORD,37.4998690436419,127.039176324338,서울특별시 강남구 논현로86길 20 역삼봉강빌딩,02-733-5292
작,NOT_RECORD,37.502337,127.034633,서울특별시 강남구 논현로95길 14 ,02-501-2342
황우양곱창,NOT_RECORD,37.5051770065812,127.042175840233,서울특별시 강남구 언주로98길 5 ,02-562-9009
선릉순대국,NOT_RECORD,37.50469,127.043847,서울특별시 강남구 언주로98길 26 ,02-569-1517
연스시,NOT_RECORD,37.5031531623026,127.040387923823,서울특별시 강남구 테헤란로37길 15 지하1층,02-3461-8967
르와조역삼,NOT_RECORD,37.5024216299947,127.035044325267,서울특별시 강남구 논현로95길 10 1층 일부호,070-7537-3893
범골,NOT_RECORD,37.5003600931959,127.043055799448,서울특별시 강남구 언주로81길 6 ,02-539-8988
동봉관,NOT_RECORD,37.4962830215716,127.044800493496,서울특별시 강남구 도곡로37길 38 ,02-567-7931
스시하쿠초,NOT_RECORD,37.5019949322814,127.037336400239,서울특별시 강남구 논현로 508 GS강남타워 지하1층,010-7546-5621
고갯마루,NOT_RECORD,37.499363,127.039406,서울특별시 강남구 테헤란로28길 27 ,02-3476-7006
현대기사식당,NOT_RECORD,37.4988193799338,127.036622252659,서울특별시 강남구 역삼로17길 64 ,02-3453-6532
갈비다움(역삼본점),NOT_RECORD,37.502589421595,127.034962184701,서울특별시 강남구 테헤란로25길 31 1층 갈비다움,02-553-0720
쏭타이(역삼점),NOT_RECORD,37.5056843062253,127.040272004532,서울특별시 강남구 테헤란로39길 51 옥산빌딩 1층 102호,02-554-0342
삼다족발,NOT_RECORD,37.5027639048107,127.038569731582,서울특별시 강남구 논현로94길 28 2층,02-501-4088
자르뎅페르뒤,NOT_RECORD,37.506298,127.040316,서울특별시 강남구 언주로 541 에프앤에프사옥 본관,02-520-0900
베통바이멜로워,NOT_RECORD,37.5023270151927,127.044444694599,서울특별시 강남구 테헤란로44길 8 아이콘역삼빌딩 1층,02-556-2111
삼호복집,NOT_RECORD,37.5035644581254,127.040162407776,서울특별시 강남구 언주로93길 22 ,02-555-8606
바코드플러스,NOT_RECORD,37.497946,127.034375,서울특별시 강남구 논현로85길 47 ,02-501-8355
만다린,NOT_RECORD,37.495652,127.040899,서울특별시 강남구 논현로72길 16 초원빌딩 102,02-568-6831
꽃새우영번지,NOT_RECORD,37.5061762449161,127.041344559745,서울특별시 강남구 언주로 536 ,02-501-2050
옛골,NOT_RECORD,37.505912,127.032554,서울특별시 강남구 봉은사로24길 12 ,02-561-0591
리밍,NOT_RECORD,37.503987,127.040094,서울특별시 강남구 테헤란로37길 27 일신빌딩 1층,02-3453-9388
민이한상,NOT_RECORD,37.501096,127.032166,서울특별시 강남구 테헤란로13길 22 ,02-566-7875
커피나인(테헤란로점),NOT_RECORD,37.5009074585153,127.034228797048,서울특별시 강남구 강남대로94길 87 ,02-565-2747
피그커피,NOT_RECORD,37.5051503517396,127.040062261359,서울특별시 강남구 언주로97길 15 1층 피그커피,070-7809-3349
오성식당(역삼점),NOT_RECORD,37.5026361264434,127.039165329793,서울특별시 강남구 테헤란로33길 13 2층 오성식당,02-553-5551
강구항,NOT_RECORD,37.5031028684087,127.04017584493,서울특별시 강남구 테헤란로37길 13-6 태웅빌딩,02-585-5739
돝고기506,NOT_RECORD,37.49824899107963,127.03620592712366,"서울특별시 강남구 역삼로17길 53 서연빌딩 2, 3층",02-6933-9506
레이첼서울,NOT_RECORD,37.4987459642102,127.036859587938,서울특별시 강남구 논현로85길 5-6 ,010-7282-3209
백운봉막국수,NOT_RECORD,37.503332,127.039601,서울특별시 강남구 언주로93길 30 역삼빌딩,02-554-5155
수라선역삼,NOT_RECORD,37.504331825662,127.041519859513,서울특별시 강남구 언주로 517 신라스테이호텔 1층,02-557-8833
강가(역삼점),NOT_RECORD,37.501859,127.037278,서울특별시 강남구 논현로 508 ,02-2005-0610
재패니즈다이닝안심,NOT_RECORD,37.505087,127.042586,서울특별시 강남구 언주로98길 9 2층,070-8808-0618
예담한정식,NOT_RECORD,37.5010094728706,127.031902332706,서울특별시 강남구 테헤란로13길 21 ,02-365-6884
헴라갓,NOT_RECORD,37.4975536471595,127.033902370346,서울특별시 강남구 테헤란로14길 27 ,02-318-3335
진수사,NOT_RECORD,37.502748,127.040097,서울특별시 강남구 테헤란로37길 13-7 ,02-561-3544
해머스미스커피,NOT_RECORD,37.502472682625246,127.03693176396266,서울특별시 강남구 논현로94길 7 ,02-6406-0888
가당,NOT_RECORD,37.498435,127.037221,서울특별시 강남구 논현로85길 5-11 ,02-557-8127
문어랑,NOT_RECORD,37.505396,127.042523,서울특별시 강남구 봉은사로44길 64 ,02-508-7701
클로리스티앤커피,NOT_RECORD,37.499927,127.036553,서울특별시 강남구 테헤란로 152 강남파이낸스센터 지하 1층,02-553-7523
범표원두,NOT_RECORD,37.5050548092998,127.039902064615,서울특별시 강남구 테헤란로37길 42 지하1층 범표원두,02-6402-3071
농협한우금강정육식당,NOT_RECORD,37.5035512468705,127.03644677852,서울특별시 강남구 봉은사로30길 62 영우빌딩,02-567-2959
빌즈,NOT_RECORD,37.4997440471512,127.034954751198,서울특별시 강남구 테헤란로 142 ,02-568-1353 
가야식당,NOT_RECORD,37.507339,127.035168,서울특별시 강남구 봉은사로 210 송산빌딩,02-556-9367
스크렘,NOT_RECORD,37.5037271673496,127.026468923524,서울특별시 강남구 봉은사로4길 17 ,070-7675-4050
마르케,NOT_RECORD,37.5088775618491,127.023136917683,서울특별시 강남구 강남대로124길 5 1층,02-534-6006
흐르르,NOT_RECORD,37.520520357927,127.013749920164,서울특별시 서초구 잠원로 201-12 ,070-8836-1348
해목(논현점),NOT_RECORD,37.5215311909818,127.038295679925,서울특별시 강남구 선릉로145길 14 ,02-6203-0021
모모치,NOT_RECORD,37.5075821755068,126.959441961291,서울특별시 동작구 흑석로 85-11 ,02-817-9690
브레드덕,NOT_RECORD,37.5047956242888,126.942297308681,서울특별시 동작구 상도로30길 39 ,070-8827-0008
삼목등심,NOT_RECORD,37.5063265822019,126.962023563346,서울특별시 동작구 서달로10길 9-3 ,02-822-3035
더큐어링,NOT_RECORD,37.5079352269786,126.963713051621,서울특별시 동작구 서달로14길 12 2층 더큐어링,070-4400-4912
토마트,NOT_RECORD,37.5069876334496,126.963691455768,서울특별시 동작구 서달로14라길 8 ,010-8357-5969
더디저트랩,NOT_RECORD,37.5028684818551,126.943452576133,서울특별시 동작구 장승배기로10길 100 상도더샵 2차 상가 1층,010-4495-0890
성민양꼬치(중앙대입구역점),NOT_RECORD,37.507504,126.963631,서울특별시 동작구 서달로14나길 9 ,02-816-8522
상도동카페오월,NOT_RECORD,37.501523146270515,126.93431169376034,서울특별시 동작구 성대로1길 21 ,02-822-9020
남원골추어탕,NOT_RECORD,37.512449,126.93717,서울특별시 동작구 노량진로8길 34 ,02-824-6708
나루,NOT_RECORD,37.501245214140845,126.93355648615791,서울특별시 동작구 상도로 120 핸드픽트호텔서울,02-2229-5491
소문난곱창닭갈비전문점 ,NOT_RECORD,37.501587317933,126.93716427007,서울특별시 동작구 상도로22길 38 ,02-813-8138
중국성,NOT_RECORD,37.5017090769881,126.949224997137,서울특별시 동작구 상도로 291 ,02-823-6261
양씨네제빵소,NOT_RECORD,37.5011794263125,126.934336422614,서울특별시 동작구 성대로1길 18-5 ,070-7633-1018
사이공리,NOT_RECORD,37.507091,126.939606,서울특별시 동작구 장승배기로17길 1 ,02-822-1763
우정소금구이,NOT_RECORD,37.5123857060582,126.944401840416,서울특별시 동작구 만양로 100 ,02-826-6679
형제상회,NOT_RECORD,37.5148236866215,126.937975950622,서울특별시 동작구 노들로 674 노량진수산물도매시장,02-816-8227
태평양수산,NOT_RECORD,37.5148236866215,126.937975950622,서울특별시 동작구 노들로 674 노량진수산물도매시장,02-822-3667
고렝,NOT_RECORD,37.4944714903681,126.958753828479,서울특별시 동작구 상도로61길 72 제이플러스 1층,070-8621-9096
은희네온집닭떡볶이,NOT_RECORD,37.5024379063376,126.950944652485,서울특별시 동작구 상도로41길 35 미르하우스 1층,02-816-4529
오감만족,NOT_RECORD,37.509957,126.939765,서울특별시 동작구 장승배기로23길 1 ,02-822-5697
오코노미스토리,NOT_RECORD,37.5121656498804,126.937662013492,서울특별시 동작구 노량진로10길 27 1층 오코노미스토리,010-8346-3433
부안수산,NOT_RECORD,37.514969,126.941385,서울특별시 동작구 노들로 688 노량진수산시장 고급3호,02-821-2309
톰스키친,NOT_RECORD,37.5082107065725,126.946118884633,서울특별시 동작구 만양로3길 20 신동아리버파크빌 D동 202호,010-2481-5969
다성반점,NOT_RECORD,37.499255839917,126.951639401182,서울특별시 동작구 상도로37길 54 동남하이퍼,02-814-1199
소문난명품잔치국수,NOT_RECORD,37.5118016078913,126.954334348772,서울특별시 동작구 노량진로26길 11 ,02-824-3005
다래식당,NOT_RECORD,37.506261930203834,126.94773918513286,서울특별시 동작구 만양로2길 2 신성빌딩,02-812-4156
토속골,NOT_RECORD,37.512208,126.937826,서울특별시 동작구 노량진로8길 48 ,02-825-3455
만리장성,NOT_RECORD,37.5127084643805,126.938271218334,서울특별시 동작구 노량진로12길 12 ,02-826-9555
고향팥칼국수,NOT_RECORD,37.5020554314725,126.934097934607,서울특별시 동작구 상도로 129 남광빌딩,0507-1384-8975
와우신내떡,NOT_RECORD,37.511751,126.945111,서울특별시 동작구 만양로14가길 3 ,02-2631-8484
여수여천,NOT_RECORD,37.5148236866215,126.937975950622,서울특별시 동작구 노들로 674 노량진수산물도매시장,010-9140-0730
오시오떡볶이,NOT_RECORD,37.504044,126.949808,서울특별시 동작구 양녕로 278-2 ,02-825-7798
카츠로우,NOT_RECORD,37.522394,127.047464,서울특별시 강남구 삼성로147길 8 3층,02-543-5533
뉴욕바닷가재,NOT_RECORD,37.524233,127.039991,서울특별시 강남구 선릉로152길 5 ,02-547-0023
고기준청담,NOT_RECORD,37.525589387901,127.045436032501,서울특별시 강남구 도산대로75길 21 ,02-6204-5515
호무랑,NOT_RECORD,37.523341,127.044181,서울특별시 강남구 도산대로 442 피엔폴루스 1층,02-6947-1279
와세다야(청담점),NOT_RECORD,37.525576,127.051309,서울특별시 강남구 압구정로79길 51 ,02-3443-0541
광부,NOT_RECORD,37.52198,127.0405,서울특별시 강남구 도산대로56길 17 ,02-515-9292
오쏜도,NOT_RECORD,37.5222660297875,127.04231192957,서울특별시 강남구 선릉로146길 27-8 ,010-6397-2255
코리아하우스,NOT_RECORD,37.525357,127.051772,서울특별시 강남구 압구정로79길 56 아름다운빌딩 1층,02-543-8888
창신한우,NOT_RECORD,37.516466,127.040419,서울특별시 강남구 학동로 338 파라곤빌딩 1층 106호,02-516-0992
양평옥,NOT_RECORD,37.535891,126.895798,서울특별시 영등포구 양평로17길 10 ,02-2679-8086
삼성원,NOT_RECORD,37.528995,126.897082,서울특별시 영등포구 당산로35길 6-1 ,02-2634-1140
오시게리따,NOT_RECORD,37.5286579800037,126.89940927754,서울특별시 영등포구 당산로38길 12 1층,02-2637-6305
강릉생태막회집,NOT_RECORD,37.526989,126.897424,서울특별시 영등포구 국회대로34길 6 ,02-2068-5321
취향원,NOT_RECORD,37.52668,126.8975,서울특별시 영등포구 국회대로34길 7-2 갑산빌딩,02-2671-6577
한성삼계탕,NOT_RECORD,37.526122,126.897808,서울특별시 영등포구 국회대로36길 14 ,02-2634-1457
마도,NOT_RECORD,37.51915,126.928551,서울특별시 영등포구 의사당대로1길 11 대우메종리브르,02-784-2660
여수해물낙지,NOT_RECORD,37.519707,126.929203,서울특별시 영등포구 여의대방로65길 17 서린빌딩 지하1층,02-785-6008
제주항구,NOT_RECORD,37.520761,126.926893,서울특별시 영등포구 국제금융로6길 33 ,02-783-5453
란나타이,NOT_RECORD,37.520112,126.931947,서울특별시 영등포구 국제금융로 86 롯데캐슬아이비 지하1층,02-782-8284
산삼골오리집,NOT_RECORD,37.520761,126.926893,서울특별시 영등포구 국제금융로6길 33 여의도백화점 7층,02-783-3998
본토박이,NOT_RECORD,37.521683,126.926591,서울특별시 영등포구 국제금융로6길 30 백상빌딩 306호,02-786-1553
밍1956(여의도점),NOT_RECORD,37.520721,126.929123,서울특별시 영등포구 국제금융로8길 19 중앙빌딩,02-761-4242
한양원,NOT_RECORD,37.51913,126.9305,서울특별시 영등포구 여의대방로65길 6 센터빌딩 1층,02-761-9292
차이홍,NOT_RECORD,37.521356,126.92498,서울특별시 영등포구 여의나루로 42 여의도종합상가,02-782-2918
신복촌,NOT_RECORD,37.520721,126.929123,서울특별시 영등포구 국제금융로8길 19 중앙빌딩 215호,02-706-2500
부흥동태탕,NOT_RECORD,37.520167,126.927251,서울특별시 영등포구 국제금융로8길 34 오륜빌딩 3층,02-782-7707
수라한정식,NOT_RECORD,37.520833,126.931286,서울특별시 영등포구 국제금융로 78 홍우빌딩,02-784-3360
파파호(여의도점),NOT_RECORD,37.52083,126.9313,서울특별시 영등포구 국제금융로 78 홍우빌딩 1층,02-784-2885
여의도생고기,NOT_RECORD,37.52004,126.9308,서울특별시 영등포구 의사당대로1길 34 인영빌딩 지하 1층,02-782-3376
은호식당(여의도점),NOT_RECORD,37.51915,126.93052,서울특별시 영등포구 여의대방로65길 6 센터빌딩 지하 1층,02-782-6193
예성가든,NOT_RECORD,37.521345,126.925982,서울특별시 영등포구 국제금융로6길 38 한국화재보험협회빌딩지하1층,02-785-4355
삼보청국장,NOT_RECORD,37.521356,126.92498,서울특별시 영등포구 여의나루로 42 여의도종합상가 1층,02-783-0890
율도,NOT_RECORD,37.521683,126.926591,서울특별시 영등포구 국제금융로6길 30 백상빌딩,02-784-8877
열빈,NOT_RECORD,37.520833,126.931286,서울특별시 영등포구 국제금융로 78 홍우빌딩,02-783-3838
긴자바이린 더현대서울점,NOT_RECORD,37.5251913154781,126.929112756574,서울특별시 영등포구 여의대로 108 더현대백화점 지하 1층,02-734-9765 
쥬빌리쇼콜라띠에,NOT_RECORD,37.524267,126.92482,서울특별시 영등포구 국제금융로2길 24 BNK금융타워 1층,02-785-7221
나주곰탕,NOT_RECORD,37.526016,126.930757,서울특별시 영등포구 여의나루로 113 공작상가 지하,02-784-3177
다모아산채,NOT_RECORD,37.52994,126.922214,서울특별시 영등포구 국회대로76길 18 오성빌딩 지하1층,02-784-7350
린네스가든,NOT_RECORD,37.524353,126.927137,서울특별시 영등포구 여의나루로 77-1 월드비전빌딩 102호,02-783-4877
이즈미,NOT_RECORD,37.530294,126.919904,서울특별시 영등포구 국회대로72길 4 아이비피아빌딩 2층,02-761-1300
삼원정,NOT_RECORD,37.528565,126.920609,서울특별시 영등포구 국회대로70길 22 금강빌딩,02-780-9925
정우칼국수보쌈,NOT_RECORD,37.52904,126.9219,서울특별시 영등포구 은행로 29 정우빌딩 지하 1층,02-783-4007
오성해물탕,NOT_RECORD,37.52994,126.922214,서울특별시 영등포구 국회대로76길 18 오성빌딩 2층,02-783-8684
양스앤메츠,NOT_RECORD,37.530234,126.921678,서울특별시 영등포구 국회대로76길 16 렉싱턴호텔 별관 2층,02-6670-7266
소담채,NOT_RECORD,37.443228,127.055443,서울특별시 서초구 원터6길 5 ,02-3462-8592
신송한식,NOT_RECORD,37.523511,126.926529,서울특별시 영등포구 여의나루로 67 신송빌딩,02-784-5533
한류관,NOT_RECORD,37.528229,126.916424,서울특별시 영등포구 국회대로 750 금산빌딩 지하 1층,02-3775-2838
앨리스토리,NOT_RECORD,37.470755,127.039932,서울특별시 서초구 강남대로16길 16 ,02-6405-7774
크로스비,NOT_RECORD,37.47752,127.040989,서울특별시 서초구 양재천로 115 중앙빌딩,02-576-7754
양재해장국,NOT_RECORD,37.468117,127.040956,서울특별시 서초구 강남대로10길 11 ,02-575-5668
사랑채,NOT_RECORD,37.471295,127.041031,서울특별시 서초구 언남길 15-6 농산빌딩,02-572-0352
전주아구찜해물탕,NOT_RECORD,37.470529,127.039578,서울특별시 서초구 마방로2길 69 ,02-573-2467
