name,ribbonType,latitude,longitude,address,phone
제로컴플렉스,RIBBON_THREE,37.5208433209866,126.992854368108,서울특별시 용산구 서빙고로59길 11-8 ,02-532-0876
더그린테이블,RIBBON_THREE,37.5777621971432,126.988357552948,서울특별시 종로구 율곡로 83 아라리오 뮤지엄 4층,02-591-2672
모수서울,RIBBON_THREE,37.536443,126.999359,서울특별시 용산구 이태원로55가길 45 ,02-793-5995
아리아께,RIBBON_THREE,37.5563,127.0063,서울특별시 중구 동호로 249 서울신라호텔 2층,02-2230-3356 
콘티넨탈,RIBBON_THREE,37.556297,127.006307,서울특별시 중구 동호로 249 서울신라호텔 23층,02-2230-3369 
팔선,RIBBON_THREE,37.5563,127.0063,서울특별시 중구 동호로 249 서울신라호텔 2층,02-2230-3366 
도림,RIBBON_THREE,37.56461,126.9809,서울특별시 중구 을지로 30 롯데호텔서울 본관 37층,02-317-7101
라망시크레,RIBBON_THREE,37.559733515077966,126.97952350317435,서울특별시 중구 퇴계로 67 레스케이프 호텔 26층,02-317-4003 
키즈나,RIBBON_THREE,37.578806133812215,126.98162396312134,서울특별시 종로구 율곡로1길 78 ,02-722-0411 
수운,RIBBON_THREE,37.5714966636936,126.983659015157,서울특별시 종로구 우정국로 26 센트로폴리스빌딩 2층,02-722-4310 
본앤브레드,RIBBON_THREE,37.566790715500474,127.04450198300889,서울특별시 성동구 마장로42길 1 ,02-2294-5005
도원,RIBBON_THREE,37.56466,126.9782,서울특별시 중구 소공로 119 더플라자 3층,02-310-7300
스시조,RIBBON_THREE,37.564406,126.979697,서울특별시 중구 소공로 106 웨스틴조선호텔 20층,02-317-0373
무궁화,RIBBON_THREE,37.56461,126.9809,서울특별시 중구 을지로 30 롯데호텔 본관 38층,02-317-7061
온지음레스토랑,RIBBON_THREE,37.5804948296674,126.9733908253081,서울특별시 종로구 효자로 49 4층,02-6952-0024 
주은,RIBBON_TWO,37.5729199136655,126.970063182815,서울특별시 종로구 경희궁길 36 경희당 빌딩 8층,02-540-8580
메종루블랑,RIBBON_TWO,37.5256854191743,126.96275666622,서울특별시 용산구 한강대로15길 19-22 ,070-8849-2040
몽탄,RIBBON_TWO,37.53599611626749,126.97224352471865,서울특별시 용산구 백범로99길 50 ,02-794-8592
남영돈,RIBBON_TWO,37.5427493719708,126.973775844291,서울특별시 용산구 한강대로80길 17 ,02-793-3598
소금집델리,RIBBON_TWO,37.556823649468,126.90823736311545,서울특별시 마포구 월드컵로19길 14 ,02-336-2617
로컬릿,RIBBON_TWO,37.5409414348017,127.014746912628,서울특별시 성동구 한림말길 33 청훈빌딩 2층,02-2282-1124
오월의종,RIBBON_TWO,37.5366074435475,126.997831352071,서울특별시 용산구 이태원로45길 34 ,02-749-9481
미카야,RIBBON_TWO,37.55547,126.9182,서울특별시 마포구 동교로 145-1 학산빌딩,02-3143-3579
아이덴티티커피랩,RIBBON_TWO,37.5554112242628,126.917486143443,서울특별시 마포구 동교로 139 ,010-5787-3466
라연,RIBBON_TWO,37.55698,127.0059,서울특별시 중구 동호로 249 서울신라호텔 23층,02-2230-3367 
비원떡집,RIBBON_TWO,37.5797848928672,126.984863118822,서울특별시 종로구 북촌로 33-1 1층,02-765-4928 
수엔190,RIBBON_TWO,37.56052,126.9929,서울특별시 중구 퇴계로 190 매경미디어센터 12층,02-2000-2888
금돼지식당,RIBBON_TWO,37.55709299058367,127.01166616636434,서울특별시 중구 다산로 149 ,010-4484-8750 
자하손만두,RIBBON_TWO,37.59307,126.966,서울특별시 종로구 백석동길 12 ,02-379-2648 
무교동북어국집,RIBBON_TWO,37.5677,126.9798,서울특별시 중구 을지로1길 38 ,02-777-3891 
마포옥,RIBBON_TWO,37.53988,126.9433,서울특별시 마포구 토정로 312 2층,02-716-6661 
평양면옥,RIBBON_TWO,37.56302915750704,127.0064696447095,서울특별시 중구 장충단로 207 ,02-2267-7784 
대성집,RIBBON_TWO,37.57269,126.960904,서울특별시 종로구 사직로 5 ,02-735-4259 
하동관,RIBBON_TWO,37.56441,126.9851,서울특별시 중구 명동9길 12 ,02-776-5656 
깡통만두,RIBBON_TWO,37.57811,126.9861,서울특별시 종로구 북촌로2길 5-6 ,02-794-4243 
모모야마,RIBBON_TWO,37.56461,126.9809,서울특별시 중구 을지로 30 롯데호텔서울 본관 38층,02-317-7031
홍연,RIBBON_TWO,37.564483681788396,126.98018321530917,서울특별시 중구 소공로 106 서울 웨스틴조선호텔 1층,02-317-0494 
피에르가니에르서울,RIBBON_TWO,37.56534516953803,126.98100699814147,서울특별시 중구 을지로 30 롯데호텔신관 35층,02-317-7181
스시메르,RIBBON_TWO,37.5714966636936,126.983659015157,서울특별시 종로구 우정국로 26 센트로폴리스 2층,02-722-4330 
이치류,RIBBON_TWO,37.55062,126.9191,서울특별시 마포구 잔다리로3안길 44 ,02-3144-1312
페스타바이민구,RIBBON_TWO,37.55006938601234,127.00049792699866,서울특별시 중구 장충단로 60 반얀트리클럽앤스파 서울,02-2250-8170 
소울다이닝,RIBBON_TWO,37.54536153663566,126.98438418086488,서울특별시 용산구 신흥로26길 35 지하 1층,02-318-7685
비스떼까,RIBBON_TWO,37.540037,126.992072,서울특별시 용산구 회나무로 49 ,02-792-7746
레스토랑오늘,RIBBON_TWO,37.5263441835022,126.99610834939314,서울특별시 용산구 장문로 60 행복나눔재단,02-792-1054 
댓잎갈비,RIBBON_TWO,37.524733243328555,127.00170595433845,서울특별시 용산구 서빙고로91길 2 ,02-796-3355
쟈니덤플링,RIBBON_TWO,37.5338250009562,126.992128689959,서울특별시 용산구 보광로59길 33 ,02-790-8831
시칠리,RIBBON_TWO,37.5376679399283,127.000499654869,서울특별시 용산구 이태원로55가길 13 스카이빌,02-6951-4250
휴135,RIBBON_TWO,37.53666611513179,126.99909484024475,서울특별시 용산구 이태원로55나길 6 ,070-4155-0135
구찌오스테리아서울,RIBBON_TWO,37.5354656162861,126.998534343562,서울특별시 용산구 이태원로 223 구찌가옥 6층,02-795-1119
바토스,RIBBON_TWO,37.53457,126.9902,서울특별시 용산구 이태원로15길 1 2층,02-797-8226
라쿠치나,RIBBON_TWO,37.540522,126.996446,서울특별시 용산구 회나무로44길 10 ,02-794-6006 
스시상남,RIBBON_TWO,37.5366661151313,126.99909563226,서울특별시 용산구 이태원로55나길 6 DOTZ  지하 1층,02-796-1464
두레유,RIBBON_TWO,37.6065673142822,126.970504064967,"서울특별시 종로구 평창문화로 84 2, 3층",02-743-2468 
몰토베네,RIBBON_TWO,37.546217,126.91664,서울특별시 마포구 성지3길 67 ,02-6407-5678
스파카나폴리,RIBBON_TWO,37.54888,126.9156,서울특별시 마포구 양화로6길 28 2층,02-326-2323
교다이야,RIBBON_TWO,37.54682,126.9132,서울특별시 마포구 성지길 39 합정빌딩 1층,02-2654-2645 
금룡,RIBBON_TWO,37.55863008236035,127.1117068379481,서울특별시 광진구 워커힐로 177 워커힐호텔 1층,02-450-4512
남한강민물매운탕,RIBBON_TWO,37.545626109663,127.066210285087,서울특별시 광진구 동일로 150 ,02-464-7568 
어반나이프,RIBBON_TWO,37.53828,127.0935,서울특별시 광진구 구의강변로 85 기영빌딩,02-455-6628 
명월관,RIBBON_TWO,37.55565,127.1113,서울특별시 광진구 워커힐로 177 쉐라톤그랜드워커힐호텔,02-450-4595 
서북면옥,RIBBON_TWO,37.54538,127.0853,서울특별시 광진구 자양로 199-1 ,02-457-8319 
모에기,RIBBON_TWO,37.55863008236035,127.1117068379481,서울특별시 광진구 워커힐로 177 비스타워커힐서울 1층,02-2022-0222 
양미옥(남대문점),RIBBON_TWO,37.5614211308706,126.978778867088,서울특별시 중구 남대문로 27-2 ,02-3789-9288
팔레드신,RIBBON_TWO,37.5597323437561,126.979523390315,서울특별시 중구 퇴계로 67 레스케이프 호텔 6층,02-317-4001
엘카페커피로스터스,RIBBON_TWO,37.5519690862067,126.977112544264,서울특별시 용산구 후암로 68 지하 1층,070-8269-0715
삼청각한식당,RIBBON_TWO,37.5971,126.9843,서울특별시 성북구 대사관로 3 ,02-765-3700
쿠촐로서울,RIBBON_TWO,37.5287911785354,126.968673565462,서울특별시 용산구 한강대로 100 아모레퍼시픽 2층,010-5232-9851
피에트라,RIBBON_TWO,37.5661498802795,126.920029213649,서울특별시 마포구 성미산로23길 62 ,070-7722-5863
커피리브레,RIBBON_TWO,37.5636435058861,126.923730236588,서울특별시 마포구 성미산로32길 20-5 ,02-334-0615 
락희돈,RIBBON_TWO,37.5582802556099,126.924747511429,서울특별시 마포구 월드컵북로2길 86 ,02-332-1233
툭툭누들타이,RIBBON_TWO,37.565147,126.924014,서울특별시 마포구 성미산로 161-8 ,070-4407-5130
미로식당,RIBBON_TWO,37.552014,126.927861,서울특별시 마포구 와우산로30길 80 ,010-5538-3973
빠넬로,RIBBON_TWO,37.549353,126.918942,서울특별시 마포구 어울마당로5길 29 건우상가주택,02-322-0920
진진가연,RIBBON_TWO,37.553806747709,126.918422364162,서울특별시 마포구 월드컵북로1길 60 ,02-332-9866
옥동식,RIBBON_TWO,37.55262,126.914492,서울특별시 마포구 양화로7길 44-10 3차신도빌라,010-5571-9915
우동카덴,RIBBON_TWO,37.55165,126.915,서울특별시 마포구 양화로7안길 2-1 ,02-6463-6362
하카다분코,RIBBON_TWO,37.54886,126.9237,서울특별시 마포구 독막로19길 43 ,02-338-5536
소설한남,RIBBON_TWO,37.535220562541056,127.00910573136069,서울특별시 용산구 한남대로20길 21-18 B동 지하 1층,02-797-5995
펠앤콜,RIBBON_TWO,37.54813,126.9222,서울특별시 마포구 와우산로 39-21 ,070-4411-1434
세스타,RIBBON_TWO,37.5352206526869,127.009105052515,"서울특별시 용산구 한남대로20길 21-18 1층 101호, 102호",02-793-9400
쥬에,RIBBON_TWO,37.53748713839805,127.01279004754028,서울특별시 용산구 독서당로 124-7 ,02-798-9700
부첼리하우스,RIBBON_TWO,37.536814,127.012713,서울특별시 용산구 독서당로 122-1 포트힐빌딩,02-792-5676
BLT스테이크,RIBBON_TWO,37.57044961338216,127.00874326329739,서울특별시 종로구 청계천로 279 JW메리어트동대문스퀘어서울 2층 ,02-2276-3330 
서울다이닝,RIBBON_TWO,37.55922,127.003614,서울특별시 중구 동호로 272 디자인하우스,02-6325-6321
더파크뷰,RIBBON_TWO,37.55698,127.0059,서울특별시 중구 동호로 249 서울신라호텔 1층,02-2230-3374
순라길,RIBBON_TWO,37.57648,126.9915,서울특별시 종로구 서순라길 141 ,02-3672-5513 
호반,RIBBON_TWO,37.573264,126.989129,서울특별시 종로구 삼일대로26길 20 ,02-745-6618
영춘옥,RIBBON_TWO,37.57132,126.991513,서울특별시 종로구 돈화문로5가길 13 ,02-765-4237 
경인미술관전통다원,RIBBON_TWO,37.57451,126.9856,서울특별시 종로구 인사동10길 11-4 경인미술관,02-730-6305 
중심,RIBBON_TWO,37.5714966636936,126.983659015157,서울특별시 종로구 우정국로 26 센트로폴리스빌딩 2층,02-722-4320 
마이클바이해비치,RIBBON_TWO,37.57149756466348,126.98365878856444,서울특별시 종로구 우정국로 26 센트로폴리스빌딩 2층,02-722-4300 
발우공양,RIBBON_TWO,37.57386,126.9832,서울특별시 종로구 우정국로 56 템플스테이 통합 정보센터 5층,02-733-2081 
필동면옥,RIBBON_TWO,37.56034,126.9969,서울특별시 중구 서애로 26 ,02-2266-2611 
한국의집,RIBBON_TWO,37.56022530490597,126.99449942354792,서울특별시 중구 퇴계로36길 10 ,02-2266-9101 
평래옥,RIBBON_TWO,37.56487,126.9904,서울특별시 중구 마른내로 21-1 ,02-2267-5892 
우래옥,RIBBON_TWO,37.56817,126.9988,서울특별시 중구 창경궁로 62-29 ,02-2265-0151 
그릴데미그라스,RIBBON_TWO,37.560088148067926,126.9911266583733,서울특별시 중구 삼일대로2길 50 오리엔스호텔앤레지던스 1층,02-723-1233 
우스블랑,RIBBON_TWO,37.54138,126.9624,서울특별시 용산구 효창원로70길 4 ,02-706-9356
레벨제로,RIBBON_TWO,37.5260334010541,126.962235987145,서울특별시 용산구 한강대로15길 31-20 ,010-2284-5979
카덴,RIBBON_TWO,37.572533,126.935079,서울특별시 서대문구 연희로 173 거화빌딩 2층,02-3142-6362 
파올로데마리아,RIBBON_TWO,37.5727556539163,126.936890577525,서울특별시 서대문구 연희로26길 24 ,02-599-9936
폴앤폴리나,RIBBON_TWO,37.568844,126.929055,서울특별시 서대문구 연희로11길 56 ,02-333-0185 
목란,RIBBON_TWO,37.56834,126.9305,서울특별시 서대문구 연희로15길 21 ,02-732-0054
온고파티스리,RIBBON_TWO,37.5694208162675,126.928242163795,서울특별시 서대문구 연희로11길 71 ,02-332-5584
컨퍼런스하우스달개비,RIBBON_TWO,37.56677,126.976,서울특별시 중구 세종대로19길 16 ,02-765-2068 
라세느,RIBBON_TWO,37.56534,126.981,서울특별시 중구 을지로 30 롯데호텔 본관 1층,02-317-7171 
나인스게이트,RIBBON_TWO,37.564372,126.980016,서울특별시 중구 남대문로7길 16 웨스틴조선호텔 1층,02-317-0365
충무집,RIBBON_TWO,37.567332,126.981994,서울특별시 중구 을지로3길 30-14 ,010-2019-4088 
세스크멘슬,RIBBON_TWO,37.54106033675408,127.05641286396366,서울특별시 성동구 성수이로14길 7 ,02-6082-0393
뱅글,RIBBON_TWO,37.5392888004233,127.0619662359,서울특별시 성동구 연무장18길 16 ,02-465-7306
매튜,RIBBON_TWO,37.5392021126229,127.061988341323,서울특별시 성동구 뚝섬로15길 31 ,02-465-9125
바위파스타바성수,RIBBON_TWO,37.5391327781277,127.061562618594,서울특별시 성동구 뚝섬로15길 27 ,02-333-4444
메쉬커피,RIBBON_TWO,37.54808,127.04244,서울특별시 성동구 서울숲길 43 ,02-464-7078
블루보틀(성수점),RIBBON_TWO,37.548107201529675,127.04564060165043,서울특별시 성동구 아차산로 7 ,02-6212-6998
리치몬드과자점,RIBBON_TWO,37.56141,126.9156,서울특별시 마포구 월드컵북로 86 ,02-325-0222
나폴레옹과자점,RIBBON_TWO,37.58889,127.0051,서울특별시 성북구 성북로 7 ,02-742-7421 
명륜손칼국수,RIBBON_TWO,37.58939,126.9989,서울특별시 종로구 혜화로 45-5 ,02-742-8662 
까델루뽀,RIBBON_TWO,37.58179,126.9714,서울특별시 종로구 자하문로16길 5-5 ,02-734-5233 
지화자,RIBBON_TWO,37.58706,126.969378,서울특별시 종로구 자하문로 125 ,02-2269-5834 
가스트로통,RIBBON_TWO,37.5786556317875,126.972607511153,서울특별시 종로구 자하문로6길 11-36 ,02-730-4162
토속촌,RIBBON_TWO,37.5776,126.9717,서울특별시 종로구 자하문로5길 5 ,02-737-7444 
아따블르,RIBBON_TWO,37.5833552066204,126.98134071176,서울특별시 종로구 팔판길 36 ,02-736-1048 
큰기와집,RIBBON_TWO,37.5787470168012,126.985411258625,서울특별시 종로구 북촌로 22 ,02-722-9024 
용수산비원,RIBBON_TWO,37.579407,126.989116,서울특별시 종로구 창덕궁1길 2 ,02-743-5999
더레스토랑,RIBBON_TWO,37.58069,126.9805,서울특별시 종로구 삼청로 54 ,02-735-8441
두레,RIBBON_TWO,37.5786280284849,126.980087994867,서울특별시 종로구 삼청로 30 국립현대미술관 1층,02-732-2919
스기모토,RIBBON_TWO,37.57974107056,126.982048950552,서울특별시 종로구 북촌로5길 54 2층,02-733-3819
두가헌,RIBBON_TWO,37.577089,126.980272,서울특별시 종로구 삼청로 14 ,02-3210-2100 
만정,RIBBON_TWO,37.586207,126.982048,서울특별시 종로구 삼청로 124-2 RH타운 2층,02-733-1392
딥블루레이크,RIBBON_TWO,37.555775,126.905635,서울특별시 마포구 포은로6길 11 ,02-323-8532 
성우서서갈비,RIBBON_TWO,37.54153,126.9421,서울특별시 마포구 마포대로1길 26 ,02-718-8543 
을밀대,RIBBON_TWO,37.54745,126.9455,서울특별시 마포구 숭문길 24 ,02-717-1922 
핑하오,RIBBON_TWO,37.540424,126.946225,서울특별시 마포구 마포대로 45 일진빌딩 지하 1층,02-3274-1188 
프릳츠,RIBBON_TWO,37.540976,126.949047,서울특별시 마포구 새창로2길 17 ,02-3275-2045 
여명,RIBBON_TWO,37.542049,126.950949,서울특별시 마포구 도화길 51 2층,02-711-5468 
진미식당,RIBBON_TWO,37.55055,126.9558,서울특별시 마포구 마포대로 186-6 ,02-3211-4468 
순대실록,RIBBON_TWO,37.5832949237454,127.00305727141,서울특별시 종로구 동숭길 127 ,02-742-5338
핏제리아오,RIBBON_TWO,37.5820958419415,127.004326234581,"서울특별시 종로구 동숭길 86 2,3층",02-3673-5005 
계향각,RIBBON_TWO,37.5820958419415,127.004326234581,서울특별시 종로구 동숭길 86 ,02-3674-7770
청진옥,RIBBON_TWO,37.571716,126.979423,서울특별시 종로구 종로3길 32 ,02-735-1690 
무교동유정낙지,RIBBON_TWO,37.56762919252033,126.97604409036988,서울특별시 중구 세종대로21길 22 태성빌딩 101호,02-725-0646
모던샤브하우스,RIBBON_TWO,37.5709958592808,126.978914477333,서울특별시 종로구 종로3길 17 D타워 5층,02-2251-8501
유유안,RIBBON_TWO,37.570539,126.975391,서울특별시 종로구 새문안로 97 포시즌스호텔서울 11층,02-6388-5500 
보칼리노,RIBBON_TWO,37.570539,126.975391,서울특별시 종로구 새문안로 97 포시즌스호텔서울 2층,02-6388-5500
찰스H,RIBBON_TWO,37.570539,126.975391,서울특별시 종로구 새문안로 97 포시즌스호텔서울 지하 1층,02-6388-5000 
아키라백서울,RIBBON_TWO,37.57069965284965,126.97540015123504,서울특별시 종로구 새문안로 97 포시즌스호텔 12층,02-6388-5500 
평안도만두집,RIBBON_TWO,37.57275,126.9733,서울특별시 종로구 새문안로3길 30 대우복합빌딩 지하 104호,02-723-6592 
나무사이로,RIBBON_TWO,37.5746,126.971,서울특별시 종로구 사직로8길 21 ,070-7590-0885
메이다이닝,RIBBON_TWO,37.67784,127.0351,서울특별시 도봉구 도봉로169길 202 ,02-904-9000
무수옥,RIBBON_TWO,37.67699,127.0442,서울특별시 도봉구 도봉로165길 15 ,02-954-6292 
아뜰리에폰드,RIBBON_ONE,37.5368027102701,127.000015614034,서울특별시 용산구 이태원로 243 2층,010-7764-7663
풍류,RIBBON_ONE,37.5802745815836,126.967456726676,서울특별시 종로구 필운대로5나길 20-12 1층,0507-1376-0006
부탄츄,RIBBON_ONE,37.55636,126.9267,서울특별시 마포구 와우산로35길 75 ,02-3144-3304
마마수제만두,RIBBON_ONE,37.59176,126.9135,서울특별시 은평구 증산로 397 ,02-375-1688 
안주마을,RIBBON_ONE,37.5764581852171,126.9721721367,서울특별시 종로구 자하문로1길 3 ,02-723-3529 
용문집,RIBBON_ONE,37.5713825413725,127.040519485291,서울특별시 성동구 살곶이길 18 ,02-2292-2218 
남산와이너리,RIBBON_ONE,37.5389676740777,126.989128810378,서울특별시 용산구 회나무로10길 5 ,02-792-5849
효도치킨,RIBBON_ONE,37.5746362867009,126.971058563556,"서울특별시 종로구 사직로8길 21-1 1, 2층",02-737-0628
월화식당,RIBBON_ONE,37.5408991543251,126.949156453911,서울특별시 마포구 도화길 29 ,02-701-7592
남영탉,RIBBON_ONE,37.5425431587763,126.973487034748,서울특별시 용산구 한강대로80길 12 ,070-8733-5949
명동교자,RIBBON_ONE,37.56255,126.9857,서울특별시 중구 명동10길 29 ,02-776-5348 
용금옥,RIBBON_ONE,37.57973,126.9709,서울특별시 종로구 자하문로 41-2 ,02-777-4749 
혜화칼국수,RIBBON_ONE,37.58651,127.0015,서울특별시 종로구 창경궁로35길 13 ,02-743-8212
성북동누룽지백숙,RIBBON_ONE,37.5945850956093,126.990464229478,서울특별시 성북구 성북로31길 9 ,02-764-0707
황금콩밭,RIBBON_ONE,37.5509656114371,126.956732003277,서울특별시 마포구 마포대로16길 9 ,02-313-2952
베이징코야,RIBBON_ONE,37.5743642341595,126.98051726008,서울특별시 종로구 율곡로2길 25 연합뉴스빌딩 지하 1층,02-313-5292 
라스위스,RIBBON_ONE,37.5784729001341,126.972564219356,서울특별시 종로구 자하문로6길 11-7 ,070-8800-4162 
고센기와집갈비,RIBBON_ONE,37.609449827136,127.052207218213,서울특별시 성북구 화랑로25길 18 ,02-943-3851
스페이스오,RIBBON_ONE,37.5744668688197,126.983552182559,서울특별시 종로구 인사동길 49 나인트리호텔 12층,027374222
부다스벨리,RIBBON_ONE,37.53436,126.98835,서울특별시 용산구 녹사평대로40길 48 1층,02-796-9330
차알(광화문디타워점),RIBBON_ONE,37.5709958592808,126.978914477333,서울특별시 종로구 종로3길 17 3층,02-2251-8345
브네,RIBBON_ONE,37.54903901328583,127.07084950531714,서울특별시 광진구 군자로 70 1층 ,0507-1307-5794
장수갈비집본가,RIBBON_ONE,37.560967,126.983114,서울특별시 중구 명동2길 54-1 ,02-775-9292 
조선옥,RIBBON_ONE,37.5667960482466,126.993638013279,서울특별시 중구 을지로15길 6-5 ,02-2266-0333
포옹싸,RIBBON_ONE,37.633802248678,126.917738964075,서울특별시 은평구 통일로 1022 헤스티아2차 115호,02-6494-0115
엔그릴,RIBBON_ONE,37.55193,126.9884,서울특별시 용산구 남산공원길 105 남산N서울타워 7층,02-3455-9297 
에그앤플라워,RIBBON_ONE,37.5453628880082,126.984383275318,서울특별시 용산구 신흥로26길 35 ,02-3789-7681
빠르크,RIBBON_ONE,37.53746,126.9997,서울특별시 용산구 이태원로55가길 26-5 2층,02-792-2022
페트라,RIBBON_ONE,37.53463,126.9877,서울특별시 용산구 녹사평대로40길 33 2층,02-790-4433
재인,RIBBON_ONE,37.5363402198792,127.001269028454,서울특별시 용산구 이태원로54길 48 2층,02-797-2454
패션5,RIBBON_ONE,37.53875,127.002,서울특별시 용산구 이태원로 272 SPC빌딩,02-2071-9505 
은마양대창,RIBBON_ONE,37.5373391492786,127.001983901724,서울특별시 용산구 이태원로54길 22 ,02-797-5422 
더부스,RIBBON_ONE,37.53936,126.9877,서울특별시 용산구 녹사평대로54길 7 ,070-4324-4723
모터시티,RIBBON_ONE,37.533944,126.989441,서울특별시 용산구 이태원로 140-1 빅토리타운 2층,02-794-8877 
셰프테이너,RIBBON_ONE,37.537703961537986,126.99491293167496,서울특별시 용산구 이태원로27길 101 ,02-794-9172
유진막국수,RIBBON_ONE,37.5284,126.9924,서울특별시 용산구 장문로 18 ,02-797-2307 
몽크스부처,RIBBON_ONE,37.5354565227693,126.999230852921,서울특별시 용산구 이태원로 228-1 ,02-790-1108
베베베,RIBBON_ONE,37.5364064454549,127.001062993302,서울특별시 용산구 이태원로42길 46-12 ,070-8802-5466
부자피자,RIBBON_ONE,37.53723,126.9998,서울특별시 용산구 이태원로55가길 28 ,02-794-9474
왕타이,RIBBON_ONE,37.53448172851247,126.99072238313396,서울특별시 용산구 이태원로 151 영화빌딩 3층,02-749-2746
시멘트,RIBBON_ONE,37.535842687869,127.001219236784,서울특별시 용산구 대사관로11길 57 ,02-749-7272
맥파이브루샵,RIBBON_ONE,37.53941,126.9875,서울특별시 용산구 녹사평대로 244-1 ,02-749-2703
올댓재즈,RIBBON_ONE,37.5346871460213,126.998136551597,서울특별시 용산구 이태원로 216 ,02-795-5701
헬카페로스터즈,RIBBON_ONE,37.53031,126.997,서울특별시 용산구 보광로 76 ,070-7604-3456
매니멀스모크하우스,RIBBON_ONE,37.5345209941094,126.988471989299,서울특별시 용산구 녹사평대로40길 47 2층,02-790-6788
더베이커스테이블,RIBBON_ONE,37.53941,126.9875,서울특별시 용산구 녹사평대로 244-1 ,070-7717-3501
베라피자,RIBBON_ONE,37.53867,127.0021,서울특별시 용산구 이태원로 272 SPC빌딩 3층,02-796-7223
이태원숯불구이,RIBBON_ONE,37.5328479505042,126.99081275746,서울특별시 용산구 녹사평대로32길 43 ,02-797-7777 
르페셰미뇽,RIBBON_ONE,37.5352850570059,126.987719358376,서울특별시 용산구 녹사평대로40가길 3-3 2층,02-6487-5525
목단가옥,RIBBON_ONE,37.5360217198748,127.000857518344,서울특별시 용산구 이태원로54길 58-4 지하 1층,02-793-5558
종점숯불갈비,RIBBON_ONE,37.526362,127.001948,서울특별시 용산구 장문로 112 ,02-749-6887 
다츠,RIBBON_ONE,37.536611,126.99913,서울특별시 용산구 이태원로55나길 6 ,02-792-7445
타카,RIBBON_ONE,37.5285655568387,126.993107501389,서울특별시 용산구 장문로 23 호텔 몬드리안서울이태원 1층,02-794-7661 
더스팟패뷸러스,RIBBON_ONE,37.5623328436628,126.982600032183,서울특별시 중구 명동2길 22 ,02-779-1981
하이디라오,RIBBON_ONE,37.565347288841,126.983735515555,서울특별시 중구 명동3길 36 마이티빌딩 1층,02-3789-3888
촛불1978,RIBBON_ONE,37.556791,126.985334,서울특별시 중구 소파로 95 ,02-757-1978 
명동돈가스,RIBBON_ONE,37.563981,126.983573,서울특별시 중구 명동3길 8 ,02-775-5300
타지,RIBBON_ONE,37.5644105705291,126.986233754442,서울특별시 중구 명동길 73 페이지명동 2층,02-776-0677
영양센타,RIBBON_ONE,37.56107,126.9831,서울특별시 중구 명동2길 52 대용빌딩,02-776-2015
도향촌,RIBBON_ONE,37.5621320478482,126.982238910434,서울특별시 중구 남대문로 52-13 ,02-776-5671 
산동교자,RIBBON_ONE,37.5621320478482,126.982238910434,서울특별시 중구 남대문로 52-13 ,02-778-4150 
명동피자,RIBBON_ONE,37.562055413512205,126.98587471746742,서울특별시 중구 명동10길 41 챔피언빌딩 4층,02-777-8979
동빙고,RIBBON_ONE,37.51796359991885,126.98232664293936,서울특별시 용산구 이촌로 319 현대아파트,02-794-7171
브레드05,RIBBON_ONE,37.52018,126.96768,서울특별시 용산구 이촌로64길 61 장미맨숀 상가 내,070-8836-9905
갯마을,RIBBON_ONE,37.523035646485845,126.97033878731338,서울특별시 용산구 서빙고로 56 ,02-795-2277
오통영,RIBBON_ONE,37.517844350546795,126.98032224591155,서울특별시 용산구 이촌로 300 ,02-794-2377 
편의방,RIBBON_ONE,37.56179,126.9275,서울특별시 서대문구 연희로 36 ,02-363-5887
북악정,RIBBON_ONE,37.61123,126.9777,서울특별시 종로구 평창36길 6 ,02-394-2340 
장모님해장국,RIBBON_ONE,37.60884,126.9556,서울특별시 종로구 진흥로 421 ,02-379-4294 
봉화묵집,RIBBON_ONE,37.60266,127.0108,서울특별시 성북구 아리랑로19길 46-2 ,02-918-1668
남해바다마차,RIBBON_ONE,37.61351,127.065,서울특별시 성북구 한천로78길 71 선우빌딩,02-966-5036
용마해장국,RIBBON_ONE,37.594539002298,127.102280443169,서울특별시 중랑구 용마공원로5길 20 ,02-2209-5938
청평매운탕,RIBBON_ONE,37.614682,127.07843,서울특별시 중랑구 공릉로 46 ,02-976-9891 
다이닝주연,RIBBON_ONE,37.59349331688812,127.088084611645,서울특별시 중랑구 봉우재로37길 9 ,02-433-9098 
양평매운탕,RIBBON_ONE,37.54896,126.9697,서울특별시 용산구 청파로 329 ,02-712-6657 
리진,RIBBON_ONE,37.5743269631718,127.057330885456,서울특별시 동대문구 전농로 105 2층,02-2215-4105
파스텔커피웍스,RIBBON_ONE,37.5462699792267,126.912617576909,서울특별시 마포구 성지길 58 ,02-322-7549
커넥츠커피(합정점),RIBBON_ONE,37.5460993018096,126.91257941517,서울특별시 마포구 성지길 60 ,02-6080-9449
보난자커피,RIBBON_ONE,37.5516413660904,127.076203776649,서울특별시 광진구 능동로 239-1 B동 1층,070-4110-3113
팀스쿡,RIBBON_ONE,37.5424762304318,127.093616159333,서울특별시 광진구 광나루로50길 10 ,02-447-0880
램스야,RIBBON_ONE,37.5480826850688,127.108572799417,서울특별시 광진구 아차산로78길 166 광장빌딩 1층,02-456-0213
태천면옥,RIBBON_ONE,37.5471245269241,127.10267053054,서울특별시 광진구 광장로 49 1층,02-466-7224 
더이퀼리브리엄커피,RIBBON_ONE,37.5403541616654,127.067833632739,서울특별시 광진구 아차산로30길 7 3층,070-7537-3744
라라관,RIBBON_ONE,37.5397320046683,127.063320550603,서울특별시 광진구 동일로18길 10 한영해시안아파트 1층,02-465-8585
라구뜨,RIBBON_ONE,37.53836393117944,127.07092087005326,서울특별시 광진구 능동로 90 더 클래식500 B동 3층,02-2218-5770 
로프커피,RIBBON_ONE,37.5582513703731,127.073477495613,서울특별시 광진구 동일로 304 ,010-8662-5891
빠오즈푸,RIBBON_ONE,37.548136,127.071506,서울특별시 광진구 광나루로 373 ,02-462-9256
송화산시도삭면,RIBBON_ONE,37.53790518192312,127.06651676132604,서울특별시 광진구 뚝섬로27길 48 ,02-6052-7826
우마이도,RIBBON_ONE,37.54295,127.0718,서울특별시 광진구 능동로 135-2 ,02-467-8788 
소바쿠,RIBBON_ONE,37.552697,127.088769,서울특별시 광진구 천호대로 650 ,02-447-1470 
매화반점,RIBBON_ONE,37.5383565084538,127.067914081307,서울특별시 광진구 동일로18길 96 ,02-462-1939
장군갈비,RIBBON_ONE,37.55473,127.0881,서울특별시 광진구 용마산로 11 ,02-447-3479 
참누렁소가든,RIBBON_ONE,37.634825,127.070523,서울특별시 노원구 공릉로63길 13 유토피아빌딩,02-979-6400
수락이오냉면,RIBBON_ONE,37.6739162617427,127.052583116043,서울특별시 노원구 동일로237다길 7 창일빌딩 1층,02-935-2515
비스킷플로어,RIBBON_ONE,37.6251019326524,127.073724834712,서울특별시 노원구 동일로190길 6 ,010-7709-8610
제일콩집,RIBBON_ONE,37.6195,127.0776,서울특별시 노원구 동일로174길 37-8 제일빌딩,02-972-7016
진주집,RIBBON_ONE,37.5600090440077,126.977093560851,서울특별시 중구 남대문시장길 22-2 ,02-753-9813
부원집,RIBBON_ONE,37.55839,126.977598,서울특별시 중구 남대문시장4길 41-6 ,02-753-7728
타케모토,RIBBON_ONE,37.5461687337223,126.979089400658,서울특별시 용산구 두텁바위로 61 지원빌딩 1층,02-777-4649
후암편백,RIBBON_ONE,37.55101137211389,126.976891369992,서울특별시 용산구 후암로 57-1 ,02-318-2208 
회현식당,RIBBON_ONE,37.557010458319,126.977683897926,서울특별시 중구 퇴계로2길 9-8 ,02-318-8011 
홍복,RIBBON_ONE,37.56098778646127,126.9800121050206,서울특별시 중구 남대문시장길 73-3 ,02-755-7633 
콘피에르,RIBBON_ONE,37.5578385325826,126.9744151,서울특별시 중구 세종대로 14 그랜드센트럴(GRAND CENTRAL) 지하 2층,010-9219-0827
포어포어포어,RIBBON_ONE,37.5541781812656,126.966321990807,서울특별시 용산구 만리재로 180-1 1층,070-7576-0897
은호식당,RIBBON_ONE,37.55898,126.977,서울특별시 중구 남대문시장4길 28-4 ,02-753-3263 
아툼,RIBBON_ONE,37.5578385325826,126.9744151,서울특별시 중구 세종대로 14 그랜드센트럴 2층,02-6411-6472
레에스티우,RIBBON_ONE,37.5331395404854,127.003796513813,서울특별시 용산구 대사관로20길 5 ,02-722-2127
티그레서울,RIBBON_ONE,37.6200041126766,126.916869408565,서울특별시 은평구 연서로29길 34 ,02-388-9866
보르고한남,RIBBON_ONE,37.5370310977791,127.001950855071,서울특별시 용산구 이태원로54길 31 3층,02-6082-2727
미스터리브루잉컴퍼니,RIBBON_ONE,37.54384100225424,126.94790306612319,서울특별시 마포구 독막로 311 1층,02-3272-6337 
진어참치,RIBBON_ONE,37.5607,126.9207,서울특별시 마포구 연남로3길 34 ,02-332-7412 
빠끼또,RIBBON_ONE,37.561736,126.918344,서울특별시 마포구 성미산로17길 4 ,02-6407-6064
리이슈커피로스터스,RIBBON_ONE,37.5626957260034,126.921362029118,서울특별시 마포구 연남로 35 2층,02-336-6884 
사루카메,RIBBON_ONE,37.5610703891437,126.922681739908,서울특별시 마포구 연남로 15 1층 ,
펠른,RIBBON_ONE,37.5620527838076,126.920970411501,서울특별시 마포구 성미산로22길 18 A동 1층,02-332-9287
로야토야,RIBBON_ONE,37.5594582300149,126.921309294755,서울특별시 마포구 월드컵북로6길 57 민호빌딩 1층,02-3144-0911
월강부산돼지국밥,RIBBON_ONE,37.56156,126.9241,서울특별시 마포구 동교로 241-1 ,02-326-5800
최사장네닭,RIBBON_ONE,37.560343,126.923626,서울특별시 마포구 연남로 4-1 ,02-334-9242 
17도씨,RIBBON_ONE,37.56213,126.923,서울특별시 마포구 동교로29길 38 함아현 1층,02-337-1706 
르누아즈,RIBBON_ONE,37.5617663577595,126.926697768319,서울특별시 마포구 동교로46길 42-9 ,010-8989-7396
알척,RIBBON_ONE,37.5620840572499,126.923584348403,서울특별시 마포구 성미산로26길 43 ,02-3142-1108
경양카츠,RIBBON_ONE,37.56115634873273,126.92449856120587,서울특별시 마포구 동교로 238-1 ,070-7543-5445 
진가,RIBBON_ONE,37.560867,126.924926,서울특별시 마포구 동교로34길 12 2층,02-326-1668 
몽중식,RIBBON_ONE,37.5628310413654,126.924656121785,서울특별시 마포구 동교로 257 ,02-335-7567
하하,RIBBON_ONE,37.563221,126.925134,서울특별시 마포구 동교로 263 ,02-337-0211 
송가,RIBBON_ONE,37.56255,126.927,서울특별시 마포구 성미산로 197 ,02-338-6637 
소이연남,RIBBON_ONE,37.56349,126.9254,서울특별시 마포구 동교로 267 ,02-323-5130 
시실리,RIBBON_ONE,37.56234,126.9267,서울특별시 마포구 성미산로 198 ,02-334-8117 
향미,RIBBON_ONE,37.562858,126.926699,서울특별시 마포구 성미산로 193 ,02-333-2943 
오복수산,RIBBON_ONE,37.5628428242687,126.926049298178,서울특별시 마포구 성미산로 190-4 2층,070-8683-3500 
아필립,RIBBON_ONE,37.562912,126.926541,서울특별시 마포구 성미산로 191 ,070-8232-9740
우주옥,RIBBON_ONE,37.5636331027913,126.926795769119,서울특별시 마포구 동교로50길 11 지하 2층,070-4168-4812 
이미커피,RIBBON_ONE,37.55744,126.9219,서울특별시 마포구 동교로25길 7 ,02-6368-5228
야키도리묵,RIBBON_ONE,37.5646633414656,126.92456870688,서울특별시 마포구 성미산로 165-1 ,070-8835-3433
불이아,RIBBON_ONE,37.55657,126.922,서울특별시 마포구 동교로 182-6 ,02-335-6689
키움참치(홍대점),RIBBON_ONE,37.5589936056287,126.922291269024,서울특별시 마포구 동교로27길 21 영진빌딩 ,0507-1495-3788
중화복춘,RIBBON_ONE,37.559528,126.924244,서울특별시 마포구 동교로 220-7 ,070-8824-2207
얀쿠브레,RIBBON_ONE,37.5593202128277,126.924647886467,"서울특별시 마포구 양화로21길 23 1, 2층",02-322-4469
glt젤라또,RIBBON_ONE,37.559162,126.925678,서울특별시 마포구 양화로23길 10-8 ,02-322-5628
랑빠스81,RIBBON_ONE,37.560222,126.925129,서울특별시 마포구 동교로30길 17-1 ,070-7779-8181
레이크커피바,RIBBON_ONE,37.5543144698367,126.917916725803,서울특별시 마포구 동교로22길 38 ,010-7356-3017
산울림1992,RIBBON_ONE,37.554603,126.930511,서울특별시 마포구 서강로9길 60 ,02-334-0118
쿠시카츠쿠시엔,RIBBON_ONE,37.557334550269836,126.9167973827794,서울특별시 마포구 월드컵북로5나길 18 108호,02-322-6928
쉐시몽,RIBBON_ONE,37.555174,126.914191,서울특별시 마포구 월드컵로10길 48 1층,02-730-1045
겐로쿠우동,RIBBON_ONE,37.548721,126.920283,서울특별시 마포구 어울마당로 39 2층,02-325-8555
피오니,RIBBON_ONE,37.5500851944722,126.919764712297,서울특별시 마포구 독막로7길 51 ,02-333-5325
우마담,RIBBON_ONE,37.549575099755,126.917355874781,서울특별시 마포구 독막로3길 30 에이치포빌딩 2층,02-6348-0518
천이오겹살,RIBBON_ONE,37.5514096192093,126.915191676236,서울특별시 마포구 양화로7길 12 ,02-325-2920 
로칸다몽로,RIBBON_ONE,37.553063,126.916664,서울특별시 마포구 잔다리로7길 18 ,02-3144-8767
오리지널시카고피자,RIBBON_ONE,37.55007,126.9197,서울특별시 마포구 독막로7길 51 3층,02-322-4636 
진향,RIBBON_ONE,37.5537098162821,126.918315070824,서울특별시 마포구 월드컵북로1길 62 ,070-8713-8888
커피상점이심,RIBBON_ONE,37.553063,126.916664,서울특별시 마포구 잔다리로7길 18 ,070-4235-5050
카밀로라자네리아,RIBBON_ONE,37.552551,126.912878,서울특별시 마포구 동교로12길 41 ,02-332-8622 
산띠,RIBBON_ONE,37.55551,126.925,서울특별시 마포구 와우산로27길 70 2층,02-6052-3989
안동한우마을,RIBBON_ONE,37.555621576538,126.919928084467,서울특별시 마포구 동교로 162 ,02-336-9293
지로우라멘,RIBBON_ONE,37.553654,126.925138,서울특별시 마포구 와우산로29가길 79 1층,02-323-3225
성화라멘,RIBBON_ONE,37.5558555943525,126.926194388848,서울특별시 마포구 와우산로29바길 11 ,02-2296-4310
하카타나카,RIBBON_ONE,37.55499,126.9237,서울특별시 마포구 와우산로23길 50 2층,02-332-3207
이츠모라멘,RIBBON_ONE,37.5540010720065,126.924626873497,서울특별시 마포구 와우산로23길 18-7 202호,02-333-1997 
맛이차이나,RIBBON_ONE,37.547556,126.920844,서울특별시 마포구 독막로 68 2층,010-9822-2653
웃사브,RIBBON_ONE,37.548999,126.922382,서울특별시 마포구 와우산로11길 10 ,02-334-9189 
쿠시무라,RIBBON_ONE,37.54599,126.9223,서울특별시 마포구 와우산로3길 13 ,02-333-2650
츄리츄리,RIBBON_ONE,37.54837,126.9213,서울특별시 마포구 독막로15길 3-13 2층,02-749-9996
한남북엇국,RIBBON_ONE,37.53395563305231,127.00806468152406,서울특별시 용산구 독서당로 65-7 ,02-2297-1988
구스토타코,RIBBON_ONE,37.5481,126.9228,서울특별시 마포구 와우산로 41 ,02-338-8226 
울프소셜클럽,RIBBON_ONE,37.54245411206785,127.00270663687861,서울특별시 용산구 한남대로 158 ,02-158-1588
피에세,RIBBON_ONE,37.5365636555465,127.002134363783,서울특별시 용산구 한남대로 91 나인원 한남 지하2층,02-790-0768
밀로커피로스터스,RIBBON_ONE,37.55701,126.92659,서울특별시 마포구 양화로18안길 36 ,02-554-3916 
마리또에몰리에,RIBBON_ONE,37.53472,127.0087,서울특별시 용산구 한남대로18길 27 ,02-797-7970 
윤세영식당,RIBBON_ONE,37.542516,127.00246,서울특별시 용산구 한남대로 164 ,02-795-3375
단비,RIBBON_ONE,37.535202,127.008799,서울특별시 용산구 한남대로20길 21-12 ,02-797-8375
아티장베이커스,RIBBON_ONE,37.53454304398228,127.00865308193832,서울특별시 용산구 한남대로18길 26 ,02-749-3426 
이속우화,RIBBON_ONE,37.5349423314645,127.010231124633,서울특별시 용산구 한남대로20길 61 ,02-792-7177
타르틴베이커리서울,RIBBON_ONE,37.53439168374897,127.00854444857862,서울특별시 용산구 한남대로18길 22 ,02-792-2423 
더샤퀴테리아,RIBBON_ONE,37.53428344113129,127.01009673581584,서울특별시 용산구 독서당로 86 한성빌딩 1층,02-798-9402
소꿉,RIBBON_ONE,37.528286,127.005425,서울특별시 용산구 장문로 147 나성빌딩 2층,010-3430-8587
신금호숯불갈비,RIBBON_ONE,37.5536649100854,127.020108389723,서울특별시 성동구 무수막길 89 ,02-2234-3043
제이드앤워터,RIBBON_ONE,37.5436483262883,127.015311526062,서울특별시 성동구 한림말3길 29 2층,02-2296-3003
오부이용,RIBBON_ONE,37.5506171094749,127.026068932213,서울특별시 성동구 독서당로51길 29-1 ,02-6401-1048 
마테오견문록,RIBBON_ONE,37.5468826236179,127.024072726848,서울특별시 성동구 금호로 17 상가 1층,02-2298-1112
에베레스트,RIBBON_ONE,37.57257,127.0125,서울특별시 종로구 종로51가길 2-1 ,02-766-8850 
더그리핀바,RIBBON_ONE,37.5704485321397,127.008743829151,서울특별시 종로구 청계천로 279 JW 메리어트 동대문스퀘어서울 11층 ,02-2276-3344
류강현커피집,RIBBON_ONE,37.5703269097751,127.00313020538,서울특별시 종로구 동호로38길 18  ,010-5411-0961
더라이브러리,RIBBON_ONE,37.55706,127.0058,서울특별시 중구 동호로 249 서울신라호텔 1층,02-2230-3388
패스트리부띠끄,RIBBON_ONE,37.556978,127.005914,서울특별시 중구 동호로 249 서울신라호텔1층,02-2230-3377
원할머니보쌈족발본점,RIBBON_ONE,37.56962955276772,127.02320493673872,서울특별시 중구 난계로 201 세림빌딩,02-2232-3232
태극당,RIBBON_ONE,37.559389,127.002667,서울특별시 중구 동호로24길 7 ,02-2279-3152 
호빈,RIBBON_ONE,37.5605790552175,127.002123277822,서울특별시 중구 동호로 287 앰배서더서울풀만호텔 2층,02-2270-3141
어라우즈,RIBBON_ONE,37.5471667734011,127.005677166122,서울특별시 중구 다산로 32 상가6동 103-1호,010-5152-7501
우성갈비,RIBBON_ONE,37.55320433277618,127.01116761232842,서울특별시 중구 동호로7길 13 ,02-2231-6722 
진남포면옥,RIBBON_ONE,37.55341,127.0101,서울특별시 중구 다산로 108 ,02-2252-2457 
보헤이커피,RIBBON_ONE,37.555447268885,127.007920663857,서울특별시 중구 동호로15가길 15 ,010-3129-1375
노띵커피,RIBBON_ONE,37.5610596604605,127.001145287116,서울특별시 중구 퇴계로50길 33-2 ,02-303-7404
계림,RIBBON_ONE,37.57013,126.9945,서울특별시 종로구 돈화문로4길 39 ,02-2263-6658 
브레라,RIBBON_ONE,37.54837530553894,127.00694366116952,서울특별시 중구 동호로17길 295 대명빌딩 2층,02-2236-0770
은화계,RIBBON_ONE,37.564776536601634,127.01313880156792,서울특별시 중구 퇴계로 374 ,02-2233-9992 
리사르커피,RIBBON_ONE,37.552472790258584,127.01042511544821,서울특별시 중구 다산로8길 16-7 ,070-7677-5538 
지유명차,RIBBON_ONE,37.575528,126.99047,서울특별시 종로구 돈화문로 79 지유빌딩,02-762-5634 
익선디미방,RIBBON_ONE,37.5735395197375,126.989463049487,서울특별시 종로구 수표로28길 17-27 ,02-747-3418 
세컨드커피,RIBBON_ONE,37.5767802454922,126.990885361301,서울특별시 종로구 율곡로10길 16 ,070-8226-0012
온천집,RIBBON_ONE,37.5740999680943,126.989799745222,서울특별시 종로구 돈화문로11나길 31-8 ,02-762-8215
아름다운차박물관,RIBBON_ONE,37.57233,126.9859,서울특별시 종로구 인사동길 19-11 ,02-735-6678 
청수당,RIBBON_ONE,37.5738814755255,126.989784379653,서울특별시 종로구 돈화문로11나길 31-9 ,02-747-8215
해천어부,RIBBON_ONE,37.5729358261699,126.989165079423,서울특별시 종로구 수표로28길 11 청자빌딩,02-762-8008
르블란서,RIBBON_ONE,37.5728975356749,126.990217389936,서울특별시 종로구 수표로28길 30 ,02-766-9951 
개성만두궁,RIBBON_ONE,37.57423,126.9854,서울특별시 종로구 인사동10길 11-3 ,02-733-9240
뉘조,RIBBON_ONE,37.57508,126.9852,서울특별시 종로구 인사동14길 27 ,02-730-9311 
부산식당,RIBBON_ONE,37.57389,126.984,서울특별시 종로구 인사동11길 12 ,02-733-5761 
산촌,RIBBON_ONE,37.57374,126.9861,서울특별시 종로구 인사동길 30-13 ,02-735-0312
"꽃,밥에피다",RIBBON_ONE,37.575236,126.984001,서울특별시 종로구 인사동16길 3-6 ,02-732-0276 
필동칼국수,RIBBON_ONE,37.5608213723708,126.993849717992,서울특별시 중구 퇴계로36길 9 ,없음 
충무로쭈꾸미불고기,RIBBON_ONE,37.56172,126.9922,서울특별시 중구 퇴계로31길 11 ,02-2279-0803 
진고개,RIBBON_ONE,37.56299,126.9928,서울특별시 중구 충무로 19-1 ,02-2267-0955 
보건옥,RIBBON_ONE,37.5685,126.9988,서울특별시 중구 창경궁로8길 12 ,02-2275-3743 
사랑방칼국수,RIBBON_ONE,37.56324,126.9914,서울특별시 중구 퇴계로27길 46 ,02-2272-2020
금토일샴페인빠,RIBBON_ONE,37.5650958071738,126.992583246148,서울특별시 중구 충무로 43-2 2층,010-6564-1109
을지로보석,RIBBON_ONE,37.56514798844486,126.98924713690984,서울특별시 중구 마른내로 11-10 3층,010-3434-1245
레드스타,RIBBON_ONE,37.56549767665184,126.99042877522649,서울특별시 중구 수표로 48-12 ,02-6489-2927 
구위브런치바,RIBBON_ONE,37.5401156018448,126.962252873816,서울특별시 용산구 효창원로64길 6 일진빌딩 1층,010-8260-9092
안즈,RIBBON_ONE,37.56693859287416,126.98413971327712,서울특별시 중구 을지로5길 19 페럼타워 지하 1층,02-6353-8948
오장동함흥냉면,RIBBON_ONE,37.56425,126.9999,서울특별시 중구 마른내로 108 ,02-2267-9500 
오장동흥남집,RIBBON_ONE,37.56425,127.0005,서울특별시 중구 마른내로 114 ,02-2266-0735 
예전명가,RIBBON_ONE,37.56661113515573,126.98849534336023,서울특별시 중구 을지로9길 8 봉산빌딩 2층,02-2271-3155
이남장,RIBBON_ONE,37.566606,126.988638,서울특별시 중구 삼일대로12길 16 ,02-2267-4081
부산갈비,RIBBON_ONE,37.56275,126.9978,서울특별시 중구 마른내로 107-1 ,02-2279-5821 
바통밀카페,RIBBON_ONE,37.5264866412544,126.962632956649,서울특별시 용산구 한강대로15길 33 ,070-8869-6003
싸일러용산,RIBBON_ONE,37.5269056148241,126.966566172294,서울특별시 용산구 서빙고로 17 센트럴파크몰 105동 12호 ,02-749-1914
트래버틴,RIBBON_ONE,37.5248745716605,126.962078419523,서울특별시 용산구 한강대로7길 18-7 ,070-8862-6003
폰트커피,RIBBON_ONE,37.5257905975656,126.96285650643,서울특별시 용산구 한강대로15길 19-16 1층,02-6369-8549
미미옥(신용산점),RIBBON_ONE,37.526282574268,126.962950612322,서울특별시 용산구 한강대로15길 27 ,02-6954-0819
롱브르378,RIBBON_ONE,37.5245391729878,126.964843291404,서울특별시 용산구 한강대로10길 11-54 1층~4층,070-7537-3780
더보일러스,RIBBON_ONE,37.5330890858597,126.963775427136,서울특별시 용산구 청파로 112 나진상가 15동 지하1층,070-4152-7502
굿손,RIBBON_ONE,37.5314787376006,126.971736081763,서울특별시 용산구 한강대로48길 17-4 ,02-790-3215
웨이티하우스앤레스토랑,RIBBON_ONE,37.5270237235917,126.963773835076,서울특별시 용산구 한강대로21길 25 한국여성단체협의회 1층,02-795-2125
쿼츠,RIBBON_ONE,37.5329621717645,126.9718442489,서울특별시 용산구 한강대로 158 ,070-4187-4188
꺼거,RIBBON_ONE,37.5315505801618,126.971126584354,서울특별시 용산구 한강대로48길 10 ,없음 
만지오네,RIBBON_ONE,37.5288173852679,126.966653789116,서울특별시 용산구 한강대로 95 래미안용산 더 센트럴 지하2층 214호,010-3137-3757
포카치아델라스트라다,RIBBON_ONE,37.5312966447796,126.970991031155,서울특별시 용산구 한강대로46길 11 ,070-4271-3377
로스트인홍콩,RIBBON_ONE,37.5306543048487,126.971294031553,서울특별시 용산구 한강대로44길 25 지성빌딩 1층,02-794-4566
한강생태,RIBBON_ONE,37.53572,126.973,서울특별시 용산구 백범로 400 ,02-716-7452 
효뜨,RIBBON_ONE,37.5303509410215,126.9713078372,서울특별시 용산구 한강대로40가길 6 ,02-794-0526
컴컴베이커리카페,RIBBON_ONE,37.53078,126.97057,서울특별시 용산구 한강대로44길 14 커뮤니크 빌딩,02-788-7365 
원대구탕,RIBBON_ONE,37.534653,126.974207,서울특별시 용산구 한강대로62가길 8 ,02-797-4488 
강원정,RIBBON_ONE,37.54043,126.9678,서울특별시 용산구 원효로89길 13-10 ,02-719-9978 
봉산집,RIBBON_ONE,37.53437,126.975,서울특별시 용산구 한강대로62나길 24 ,02-793-5022
초원,RIBBON_ONE,37.5427605404136,126.973355698925,서울특별시 용산구 한강대로80길 7 ,02-749-5949
베이커리합,RIBBON_ONE,37.5391104230158,126.965722178909,서울특별시 용산구 원효로77길 24 ,0507-1309-3191
용문갈비집,RIBBON_ONE,37.53625971396709,126.96124127038736,서울특별시 용산구 새창로 127 ,02-712-3900 
바마셀,RIBBON_ONE,37.54072007005738,126.96867977728446,서울특별시 용산구 원효로89길 12 ,없음 
용문해장국,RIBBON_ONE,37.53791,126.9608,서울특별시 용산구 효창원로 110 ,02-712-6290 
더셰프,RIBBON_ONE,37.5399721712719,126.965214759448,서울특별시 용산구 백범로77길 33 ,02-6398-7594
높은집종가산꼼장어,RIBBON_ONE,37.56087,127.0329,서울특별시 성동구 왕십리로21길 17 ,02-2292-4074
구복만두,RIBBON_ONE,37.545406152402,126.972992424883,서울특별시 용산구 두텁바위로 7 ,02-797-8656
대도식당,RIBBON_ONE,37.56741500765416,127.03065677544468,서울특별시 성동구 무학로12길 3 ,02-2292-9772
소나무,RIBBON_ONE,37.560107,127.033277,서울특별시 성동구 행당로17길 20 ,02-2292-2222
땅코참숯구이,RIBBON_ONE,37.56068572701359,127.03303082484841,서울특별시 성동구 행당로17길 26 ,02-2281-6908
우동가조쿠,RIBBON_ONE,37.556728,127.042893,서울특별시 성동구 왕십리로 215-1 ,02-762-2177 
유래회관,RIBBON_ONE,37.56639,127.0316,서울특별시 성동구 마장로 196 ,02-2293-8866 
대흥설농탕,RIBBON_ONE,37.5669741682164,127.06256224752,서울특별시 동대문구 한천로 60 ,02-2249-2828
일광쪽갈비,RIBBON_ONE,37.56903,127.0573,서울특별시 동대문구 전농로 48 ,02-489-5055
군산아구산꽃게,RIBBON_ONE,37.5679,127.0451,서울특별시 성동구 마장로 327 ,02-2295-7019 
커피나인,RIBBON_ONE,37.56854787150042,127.05662375259054,서울특별시 동대문구 전농로3길 12 ,02-6396-9992
청송함흥냉면,RIBBON_ONE,37.56585,126.9287,서울특별시 서대문구 연희맛로 6 에스빌딩,02-334-3545
쁠라뒤쥬르,RIBBON_ONE,37.5706158369189,126.930706658777,서울특별시 서대문구 증가로 26-1 1층,02-383-8320
그로어스,RIBBON_ONE,37.5722825693755,126.933334949292,서울특별시 서대문구 연희로27길 52 ,0507-1427-3782
떡의미학,RIBBON_ONE,37.57061814217744,126.9326663108036,서울특별시 서대문구 연희로25길 72 ,02-324-3638
피터팬1978,RIBBON_ONE,37.56939,126.9317,서울특별시 서대문구 증가로 10 ,02-336-4775 
디폴트밸류,RIBBON_ONE,37.5661857885447,126.927353106836,서울특별시 서대문구 성산로 333 ,02-2293-3889 
비스트로카덴,RIBBON_ONE,37.57274922285186,126.93467481560019,서울특별시 서대문구 연희로25길 12 ,02-332-6362 
룩백커피,RIBBON_ONE,37.5682422653995,126.92920588507,서울특별시 서대문구 연희로11길 41 ,0507-1387-1128
금옥당,RIBBON_ONE,37.568021529380786,126.92967131457455,서울특별시 서대문구 연희로11라길 2 ,02-322-3378
매뉴팩트커피,RIBBON_ONE,37.56776,126.9296,서울특별시 서대문구 연희로11길 29 2층,02-6406-8777
오향만두,RIBBON_ONE,37.5669,126.9301,서울특별시 서대문구 연희맛로 22 삼원빌딩,02-323-3749
프로토콜,RIBBON_ONE,37.5677931372994,126.931372918465,서울특별시 서대문구 연희로 109  ,010-3927-6159
형제갈비,RIBBON_ONE,37.55788,126.937344,서울특별시 서대문구 명물1길 2 ,02-365-0001 
정육면체,RIBBON_ONE,37.5568390268236,126.934589678597,서울특별시 서대문구 연세로5다길 22-8 1층,070-4179-3819 
비아메렝게,RIBBON_ONE,37.5586280532636,126.93811157695,서울특별시 서대문구 명물길 27-18 ,02-363-3812
효동각,RIBBON_ONE,37.563425,126.943674,서울특별시 서대문구 연대동문길 24 ,없음 
라본느타르트,RIBBON_ONE,37.5639171508019,126.943832497098,서울특별시 서대문구 연대동문길 29 ,02-393-1117 
미스터서왕만두,RIBBON_ONE,37.55803,126.9432,서울특별시 서대문구 신촌역로 16 신촌가이아오피스텔,02-312-8869 
히노키공방,RIBBON_ONE,37.55446,126.9333,서울특별시 마포구 신촌로14안길 3 ,02-3143-2979
은하곱창,RIBBON_ONE,37.578040900912804,127.05631395943723,서울특별시 동대문구 전농로15길 22 ,02-2247-0254 
어머니대성집,RIBBON_ONE,37.5774742408426,127.028564198078,서울특별시 동대문구 왕산로11길 4 ,02-923-1718 
메이징에이,RIBBON_ONE,37.568369,126.97779,서울특별시 중구 세종대로 136 파이낸스빌딩 지하 2층,02-3783-0600 
만족오향족발,RIBBON_ONE,37.563215,126.976002,서울특별시 중구 서소문로 134-7 ,02-753-4755
남도식당,RIBBON_ONE,37.5659,126.9726,서울특별시 중구 정동길 41-3 ,없음 
다만프레르,RIBBON_ONE,37.56842249719518,126.9782578910947,서울특별시 중구 세종대로 136 파이낸스빌딩 지하 1층,02-6730-1323 
동아리,RIBBON_ONE,37.5673657681152,126.969516767128,서울특별시 중구 정동길 12-6 ,02-773-1103 
진주회관,RIBBON_ONE,37.56235,126.9745,서울특별시 중구 세종대로11길 26 ,02-753-5388 
고려삼계탕,RIBBON_ONE,37.56294,126.9729,서울특별시 중구 서소문로11길 1 ,02-752-9376 
이나니와요스케,RIBBON_ONE,37.565321,126.979066,서울특별시 중구 을지로 6 재능빌딩,02-772-9994
잼배옥,RIBBON_ONE,37.56246,126.9737,서울특별시 중구 세종대로9길 68-9 ,02-755-8106 
규반,RIBBON_ONE,37.5664884462972,126.981025044659,서울특별시 중구 을지로 29 더존을지타워 1층,02-541-1555
스시카세,RIBBON_ONE,37.5647299033135,126.981730421825,서울특별시 중구 남대문로 81 롯데백화점 본점 지하1층,010-8310-9260
라칸티나,RIBBON_ONE,37.566262,126.979954,서울특별시 중구 을지로 19 삼성빌딩 지하 1층,02-777-2579 
속초생태집,RIBBON_ONE,37.562029012273435,126.97816920253568,서울특별시 중구 남대문로 25-17 ,02-753-8944 
이북만두,RIBBON_ONE,37.56825,126.9784,서울특별시 중구 무교로 17-13 ,02-776-7361 
참숯골,RIBBON_ONE,37.567293,126.979532,"서울특별시 중구 무교로 16 체육회관빌딩 2층,3층",02-774-2100
곰국시집,RIBBON_ONE,37.56806,126.9795,서울특별시 중구 무교로 24 2층,02-756-3249 
애성회관,RIBBON_ONE,37.5624,126.9789,서울특별시 중구 남대문로5길 23 세창빌딩 1층,02-352-0303
남포면옥,RIBBON_ONE,37.56725,126.9816,서울특별시 중구 을지로3길 24 ,02-777-3131 
부민옥,RIBBON_ONE,37.567519,126.980269,서울특별시 중구 다동길 24-12 ,02-777-2345 
철철복집,RIBBON_ONE,37.56728,126.9815,서울특별시 중구 을지로3길 29 ,02-776-2418 
스시미토,RIBBON_ONE,37.567745,126.982291,서울특별시 중구 남대문로 117 동아빌딩 지하 1층,02-3789-1634
아뜰리에마미,RIBBON_ONE,37.5915728402712,127.020590405787,서울특별시 성북구 보문로34나길 4 ,02-923-7212
안동반점,RIBBON_ONE,37.5870507663948,127.018932734098,서울특별시 성북구 고려대로1길 35-1 ,02-923-4448 
리이케커피 ,RIBBON_ONE,37.592510379455,127.020261166362,서울특별시 성북구 보문로34가길 24 ,010-7173-1965
라플루마앤보헤미안,RIBBON_ONE,37.5870992240896,127.029898451923,서울특별시 성북구 고려대로27길 18 1층,02-927-7949
삼통치킨,RIBBON_ONE,37.5861124622414,127.029518544594,서울특별시 성북구 고려대로 92 ,02-922-0022
본작,RIBBON_ONE,37.548479397281,127.063912435314,서울특별시 성동구 광나루로9길 2 ,070-4833-7272
중앙감속기,RIBBON_ONE,37.5455735247076,127.051086163784,서울특별시 성동구 성수일로6길 7-1 ,02-466-9628
로우키,RIBBON_ONE,37.544198024387065,127.051581189409,서울특별시 성동구 연무장3길 6 ,02-2537-8493
성수속향연,RIBBON_ONE,37.540974299543926,127.05544422259797,서울특별시 성동구 성수이로 65 협성빌딩 102호,02-463-0753
브루잉세레모니,RIBBON_ONE,37.5432727118261,127.055139727387,서울특별시 성동구 연무장5가길 22-1 ,0507-1317-4771
피어커피로스터스,RIBBON_ONE,37.5489241684925,127.054880332448,서울특별시 성동구 광나루로4가길 24 ,02-474-1464
신라다랑원(성수점),RIBBON_ONE,37.5428324669328,127.055941214339,서울특별시 성동구 연무장9길 6 ,02-466-8089
문츠바베큐,RIBBON_ONE,37.5436341638644,127.052433880142,서울특별시 성동구 연무장5길 6 ,010-7417-3054
기미사,RIBBON_ONE,37.545134419964,127.062772457313,서울특별시 성동구 성수이로26길 47 ,070-8672-9385
성수족발,RIBBON_ONE,37.54599,127.0542,서울특별시 성동구 아차산로7길 7 동진빌딩 1층,02-464-0425
성수베이킹스튜디오,RIBBON_ONE,37.5461965391103,127.043747525348,서울특별시 성동구 서울숲2길 46 ,02-468-0789
플레이버타운,RIBBON_ONE,37.5469844940099,127.042925648075,서울특별시 성동구 서울숲4길 18-7 ,02-469-9954
대성갈비,RIBBON_ONE,37.547022,127.044096,서울특별시 성동구 서울숲4길 27 ,02-464-3012
다로베,RIBBON_ONE,37.548519716506,127.043389364604,서울특별시 성동구 왕십리로11길 7 ,02-499-3666
보난자베이커리,RIBBON_ONE,37.546834,127.044095,서울특별시 성동구 왕십리로5길 9-2 ,070-4799-5025
밀도,RIBBON_ONE,37.54623,127.0449,서울특별시 성동구 왕십리로 96 ,02-497-5050
리커버리커피바,RIBBON_ONE,37.5503309855629,127.0448580594,서울특별시 성동구 왕십리로16가길 10 ,0507-1319-5024
팩피,RIBBON_ONE,37.549626,127.044633,서울특별시 성동구 왕십리로 136 ,02-6052-7595
어메이징브루잉컴퍼니,RIBBON_ONE,37.542863,127.049402,서울특별시 성동구 성수일로4길 4 ,02-465-5208
성산왕갈비,RIBBON_ONE,37.569732651542004,126.90313681206744,서울특별시 마포구 월드컵북로 233 ,02-306-2001
국시집,RIBBON_ONE,37.58839,127.0043,서울특별시 성북구 창경궁로43길 9 ,02-762-1924 
라뜰리에꼼때,RIBBON_ONE,37.59139981236814,126.9972780042131,서울특별시 종로구 성균관로17길 53 ,010-7453-0010 
모짜,RIBBON_ONE,37.593025,126.997544,서울특별시 성북구 성북로 102 ,02-742-1020 
수연산방,RIBBON_ONE,37.59505415381474,126.99483656083896,서울특별시 성북구 성북로26길 8 ,02-764-1736 
성북동빵공장,RIBBON_ONE,37.595858,126.988618,서울특별시 성북구 대사관로 40 B동,02-762-3450
국화정원,RIBBON_ONE,37.59455,126.9927,서울특별시 성북구 성북로 154 ,02-741-0021 
우리밀국시,RIBBON_ONE,37.59267,126.9984,서울특별시 성북구 혜화로 84-2 ,02-745-3764 
하단,RIBBON_ONE,37.58995,127.005,서울특별시 성북구 성북로6길 14 ,02-764-5744 
비스트로친친,RIBBON_ONE,37.5821290013901,126.972773908135,서울특별시 종로구 효자로13길 54 ,02-720-6143 
바참,RIBBON_ONE,37.57917145468498,126.97038445847463,서울특별시 종로구 자하문로7길 34 ,02-6402-4750
갈리나데이지,RIBBON_ONE,37.57984,126.9709,서울특별시 종로구 자하문로13길 1-4 ,010-8314-1248
두오모,RIBBON_ONE,37.58162,126.9715,서울특별시 종로구 자하문로16길 5 ,02-730-0902 
베어카페,RIBBON_ONE,37.582877,126.971122,서울특별시 종로구 자하문로24길 24 ,070-7775-8001
서촌김씨뜨라또리아,RIBBON_ONE,37.579544,126.970834,서울특별시 종로구 자하문로9길 6 2층,02-737-7786
도취하녹식당,RIBBON_ONE,37.5768472187949,126.968862082641,서울특별시 종로구 사직로9가길 12 1층,02-725-1288
퀴진라끌레,RIBBON_ONE,37.579211074520316,126.97028934695817,서울특별시 종로구 자하문로7길 36 1층,02-6053-1514
궤도,RIBBON_ONE,37.5771335165691,126.969059394981,서울특별시 종로구 필운대로 9-2 인왕빌딩 3층 ,02-4561-2344
네임드에스프레소,RIBBON_ONE,37.589502138993,127.005429926687,서울특별시 성북구 성북로6길 2-2 ,0504-0952-2271
티엔미미,RIBBON_ONE,37.5786362411317,126.970652748055,서울특별시 종로구 자하문로7길 19 1층,02-732-0719 
오베르쥬 ,RIBBON_ONE,37.577607529639074,126.97119563919911,서울특별시 종로구 자하문로5길 11 ,02-722-9445 
에노테카친친,RIBBON_ONE,37.58107,126.9666,서울특별시 종로구 옥인길 40 ,02-715-1888 
물랑,RIBBON_ONE,37.58145,126.9719,서울특별시 종로구 자하문로16길 8 ,070-4404-7978
마지,RIBBON_ONE,37.5776100466268,126.970805300872,서울특별시 종로구 자하문로5길 19 ,02-536-5228
국빈관,RIBBON_ONE,37.5766282218463,126.973830985417,서울특별시 종로구 자하문로2길 17-4 ,02-722-3833 
태진복집,RIBBON_ONE,37.579026178285,126.972084802501,서울특별시 종로구 자하문로10길 10-24 태진빌딩,02-733-3730
계열사,RIBBON_ONE,37.59285,126.9656,서울특별시 종로구 백석동길 7 ,02-391-3566 
스코프,RIBBON_ONE,37.593107,126.963583,서울특별시 종로구 창의문로 149 ,070-8801-1739 
노부,RIBBON_ONE,37.580825,126.967071,서울특별시 종로구 옥인길 23-6 누상빌딩,02-3210-4107
서촌계단집,RIBBON_ONE,37.576407472395424,126.97147232183104,서울특별시 종로구 자하문로1길 15 ,02-737-8412 
르셰프블루,RIBBON_ONE,37.5586686785768,126.968671473835,서울특별시 중구 청파로 435-10 썸웨어77,02-6010-8088
두툼,RIBBON_ONE,37.5589266608979,126.964320892997,서울특별시 중구 중림로 10 삼성 사이버 빌리지,02-392-8592
옐로우보울,RIBBON_ONE,37.560133,126.962236,서울특별시 서대문구 충정로 7 구세군빌딩 지하 1층,02-6364-4961
능라밥상,RIBBON_ONE,37.5729405662598,126.964003814558,서울특별시 종로구 사직로2길 14 권율장군집터,02-747-9907
계모임,RIBBON_ONE,37.5578835476535,126.967661584299,서울특별시 중구 중림로 39 1층 2호,02-6338-9652
로씨니,RIBBON_ONE,37.57838,126.9859,서울특별시 종로구 북촌로 18 1층,02-766-8771 
르꼬숑,RIBBON_ONE,37.5777601305254,126.988415175695,서울특별시 종로구 율곡로 83 아라리오뮤지엄 신관 3층,02-6032-1300 
한뫼촌,RIBBON_ONE,37.578944,126.985564,서울특별시 종로구 북촌로 24-4 ,02-766-5539
레이어드,RIBBON_ONE,37.5777414803804,126.985931528189,서울특별시 종로구 북촌로2길 2-3 ,없음 
제이네,RIBBON_ONE,37.578689,126.981832,서울특별시 종로구 율곡로1길 74-13 ,02-722-7899 
황생가칼국수,RIBBON_ONE,37.58006,126.9806,서울특별시 종로구 북촌로5길 78 ,02-739-6334 
이태리재,RIBBON_ONE,37.578765,126.981726,서울특별시 종로구 율곡로1길 74-9 ,070-4233-6262 
개성철렵,RIBBON_ONE,37.5863108382758,126.982009783933,서울특별시 종로구 삼청로 124-2 RH타운 1층,02-722-1242
삼청동수제비,RIBBON_ONE,37.58460857932275,126.98192595977827,서울특별시 종로구 삼청로 101-1 ,02-735-2965 
서울서둘째로잘하는집,RIBBON_ONE,37.5862,126.9818,서울특별시 종로구 삼청로 122-1 ,02-734-5302 
소선재,RIBBON_ONE,37.585493,126.981752,서울특별시 종로구 삼청로 113-1 ,02-730-7002 
어니언(안국점),RIBBON_ONE,37.57738681090379,126.98637445896094,서울특별시 종로구 계동길 5 ,070-7543-2123
대장장이화덕피자집,RIBBON_ONE,37.580529,126.985338,서울특별시 종로구 북촌로 42-4 ,02-765-4298 
런던베이글뮤지엄,RIBBON_ONE,37.579170128664,126.986202735182,서울특별시 종로구 북촌로4길 20 연화빌딩 1층,없음
그린마일커피,RIBBON_ONE,37.582351,126.985222,서울특별시 종로구 북촌로 64 ,02-744-2404 
만포면옥,RIBBON_ONE,37.614102,126.917447,서울특별시 은평구 연서로 171 동연빌딩,02-389-3917
성너머집,RIBBON_ONE,37.622489,126.932763,서울특별시 은평구 불광로18길 13-1 ,02-764-8571 
서부감자국,RIBBON_ONE,37.602260750611,126.926933124828,서울특별시 은평구 서오릉로 8 ,02-356-4555 
해례커피,RIBBON_ONE,37.6206715464357,126.917614902171,서울특별시 은평구 통일로83길 19 ,02-384-1732
와이엠커피프로젝트,RIBBON_ONE,37.6191336121159,126.917559511221,서울특별시 은평구 연서로29길 21-8 ,070-7767-0829
락희안,RIBBON_ONE,37.5760936402375,126.924152924933,서울특별시 서대문구 가재울로4길 53 ,02-375-7576
카페꼼마(합정점),RIBBON_ONE,37.551946564453,126.906760728614,서울특별시 마포구 포은로 49 ,070-4179-2205
오스테리아샘킴,RIBBON_ONE,37.551304,126.910887,서울특별시 마포구 양화로3길 55 땅콩빌딩 2층,02-324-3338 
무슈부부커피스탠드,RIBBON_ONE,37.5561283507016,126.898338402889,서울특별시 마포구 망원로 13 ,02-337-7711
도래노트,RIBBON_ONE,37.5601500310484,126.903480384734,서울특별시 마포구 방울내로 72 ,0507-1368-1062
바삭마차,RIBBON_ONE,37.555286,126.906548,서울특별시 마포구 월드컵로13길 64 ,02-336-4486 
경기떡집,RIBBON_ONE,37.555,126.9103,서울특별시 마포구 동교로9길 24 ,02-333-8880 
모연,RIBBON_ONE,37.53943141378686,126.9437648759179,서울특별시 마포구 토정로 318 영우빌딩 1,02-704-0770 
청춘구락부,RIBBON_ONE,37.540082,126.942878,서울특별시 마포구 토정로 308 ,02-702-1399
오롯,RIBBON_ONE,37.5458116617778,126.945299948138,서울특별시 마포구 백범로24길 5-5 ,02-3272-3555
립하버,RIBBON_ONE,37.5459540326884,126.944940337991,서울특별시 마포구 백범로24길 11-4 ,없음
계고기집,RIBBON_ONE,37.5459839648361,126.945564274909,서울특별시 마포구 백범로24길 1 1층,02-717-7624
비로소커피,RIBBON_ONE,37.5481234358738,126.939202546866,서울특별시 마포구 광성로6길 42 ,02-712-9030
크리크,RIBBON_ONE,37.5483976966577,126.939900311541,서울특별시 마포구 백범로10길 25 ,070-8806-0168  
역전회관,RIBBON_ONE,37.54288,126.947,서울특별시 마포구 토정로37길 47 ,02-703-0019 
장가네곱창,RIBBON_ONE,37.54118,126.9414,서울특별시 마포구 토정로 290 ,02-717-2425 
남해바다,RIBBON_ONE,37.54248,126.9473,서울특별시 마포구 토정로37길 46 정우상가 1층,02-707-3101
대물상회,RIBBON_ONE,37.5408011604849,126.95248554210742,서울특별시 마포구 새창로6길 29 ,02-712-1237 
마포양지설렁탕,RIBBON_ONE,37.54192,126.9505,서울특별시 마포구 새창로 6 ,02-716-8616 
소울한우,RIBBON_ONE,37.5392825670042,126.947276903557,서울특별시 마포구 삼개로 16 근신빌딩 1층,02-702-0101
타쿠미야,RIBBON_ONE,37.544749366441955,126.94826001068026,서울특별시 마포구 백범로 152 1층 6호,02-713-5536
팩토리엠,RIBBON_ONE,37.544749366441955,126.94826001068026,서울특별시 마포구 백범로 152 공덕파크자이,02-337-7117
요수정,RIBBON_ONE,37.547119300873,126.941578380249,서울특별시 마포구 대흥로 80-2 2층,02-718-2102
호호식당,RIBBON_ONE,37.58190337889023,127.00003622828625,서울특별시 종로구 대학로9길 35 ,02-741-2384 
마포진짜원조최대포,RIBBON_ONE,37.5445343009626,126.952111678969,서울특별시 마포구 만리재로1길 3 ,02-719-9292 
1940금문,RIBBON_ONE,37.585413647250576,127.00062496728204,서울특별시 종로구 창경궁로 269-1 ,02-744-8610 
진아춘,RIBBON_ONE,37.582813,127.000472,서울특별시 종로구 대명1길 18 ,02-765-5688 
커피투어(광화문점),RIBBON_ONE,37.575341,126.970203,서울특별시 종로구 사직로10길 12 신우빌딩,02-733-6612
남도식당,RIBBON_ONE,37.572194,126.979423,서울특별시 종로구 종로3길 42 ,02-734-0719 
펠트커피(청계천점),RIBBON_ONE,37.5687892140435,126.978817526558,서울특별시 중구 청계천로 14 한국정보화진흥원 1층,02-3789-5946
만리지화,RIBBON_ONE,37.5709958592808,126.978914477333,서울특별시 종로구 종로3길 17 D타워 리플레이스 광화문 4층,02-2251-8522
광화문국밥,RIBBON_ONE,37.568908,126.975418,서울특별시 중구 세종대로21길 53 ,02-738-5688 
구마스시,RIBBON_ONE,37.56966,126.97489,서울특별시 종로구 새문안로 92 광화문오피시아빌딩 지하 1층,02-735-2500 
렁팡스,RIBBON_ONE,37.5729199136655,126.970063182815,서울특별시 종로구 경희궁길 36 ,02-722-8053
호미관,RIBBON_ONE,37.570994,126.980451,서울특별시 종로구 종로5길 13 삼공빌딩 지하1층,02-723-5651
커피스트,RIBBON_ONE,37.57275,126.9694,서울특별시 종로구 경희궁길 39 ,02-725-5557 
조우,RIBBON_ONE,37.571343815041786,126.97119805167881,서울특별시 종로구 경희궁1길 10-1 ,02-732-1383
가봉루,RIBBON_ONE,37.5715235111942,126.976222600985,서울특별시 종로구 세종대로23길 3 2층,02-736-8100
한라의집,RIBBON_ONE,37.57099,126.9757,서울특별시 종로구 새문안로9길 29-1 ,02-737-7484
미치루스시,RIBBON_ONE,37.5739029320481,126.978983502911,서울특별시 종로구 종로1길 42 이마빌딩 지하 1층,02-761-4090
설가온,RIBBON_ONE,37.57262064091815,126.97572100551191,서울특별시 종로구 세종대로 175 세종문화회관 지하 1층,02-733-3276 
스시와,RIBBON_ONE,37.5750118075378,126.981249627719,서울특별시 종로구 율곡로2길 7 서머셋팰리스서울 2층 201호,02-730-5396
신안촌,RIBBON_ONE,37.57567,126.971,서울특별시 종로구 사직로12길 8 ,02-725-7744
사발,RIBBON_ONE,37.57393,126.9713,서울특별시 종로구 사직로8길 34 경희궁의아침3단지 1층 142호,02-720-4845 
함스브로트과자점,RIBBON_ONE,37.648898,127.034519,서울특별시 도봉구 도봉로 483 ,02-996-4488 
수정궁,RIBBON_ONE,37.66209,127.0329,서울특별시 도봉구 방학로 173 ,02-3491-0440 
수유갈비산성골,RIBBON_ONE,37.634719,127.027637,서울특별시 강북구 덕릉로 126 우일빌딩,02-989-7341
땡땡거리형제옥,NOT,37.56254191943842,126.96747089301188,서울특별시 서대문구 충정로6안길 3 ,02-362-4679
주052,NOT,37.5633674241059,127.037643745197,서울특별시 성동구 고산자로14길 26 지웰홈스 왕십리 1층,02-2281-0343
묵동부대찌개,NOT,37.6154408274917,127.075710783856,서울특별시 중랑구 중랑역로 247 ,02-974-4866
오늘통닭(수유본점),NOT,37.64083,127.0291,서울특별시 강북구 도봉로 384 ,02-994-0964
모닐이네하우스,NOT,37.5634283536668,126.922493792198,서울특별시 마포구 성미산로26길 9  1층 101호,0507-1385-9331
어반가든,NOT,37.567337,126.969177,서울특별시 중구 정동길 12-15 ,02-777-2254 
조금,NOT,37.5752792170686,126.983634642346,서울특별시 종로구 인사동길 60 크라운빌딩 1층,02-734-0783
한가람,NOT,37.5625153279648,126.978928412409,서울특별시 중구 남대문로5길 25 ,02-318-3088
목멱산방,NOT,37.55811637198653,126.98688953052782,서울특별시 중구 퇴계로20길 71 ,02-318-4790
백부장집닭한마리,NOT,37.571957,126.982737,서울특별시 종로구 삼봉로 100-1 ,02-732-2565
파스타공작소,NOT,37.575371838965,126.897012559179,서울특별시 마포구 월드컵북로42가길 24 ,02-304-6460
영앤도터스,NOT,37.5479383583415,126.954369685876,서울특별시 마포구 마포대로 156 푸르지오시티 1층 107호,02-6487-0207
마라케쉬나이트,NOT,37.5341720738554,126.992239645,서울특별시 용산구 이태원로 164-1 ,02-795-9441 
나리의집,NOT,37.536878,127.000121,서울특별시 용산구 이태원로 245 ,02-793-4860
두바이,NOT,37.53432,126.9953,서울특별시 용산구 이태원로 192 ,02-798-9277
동아냉면,NOT,37.53085,126.9966,서울특별시 용산구 우사단로 5 ,02-796-2796
플랜트,NOT,37.53314486656054,126.99422987786963,서울특별시 용산구 보광로 117 2층,02-749-1981
셰누프라이빗키친,NOT,37.5363433391664,126.987404190597,서울특별시 용산구 녹사평대로 210-6 마이하우스 3층,070-8624-8907
소와나,NOT,37.5354860739455,127.000990229169,서울특별시 용산구 이태원로54길 68 ,02-6080-8586
내추럴하이,NOT,37.5396939051504,126.98755649203,서울특별시 용산구 녹사평대로 248 ,02-792-3372
바다식당,NOT,37.5369083075217,127.000040053449,서울특별시 용산구 이태원로 245 ,02-795-1317
브라이리퍼블릭,NOT,37.53351,126.9908,서울특별시 용산구 이태원로14길 19 ,070-8879-1967
케르반베이커리,NOT,37.5345405311963,126.997056164597,서울특별시 용산구 이태원로 208 ,02-790-5585
그릴도하,NOT,37.5383362888084,127.001831971058,서울특별시 용산구 이태원로 268 2층,010-8543-7333
폴스다이너,NOT,37.5392786344347,126.98755859772,서울특별시 용산구 녹사평대로54길 6 ,010-4045-5011
호지보보,NOT,37.5339654370555,126.989436261467,서울특별시 용산구 이태원로 140-1 빅토리타운 3층,02-792-2010
매기,NOT,37.5329182101991,127.004990574842,서울특별시 용산구 대사관로24길 15 ,02-2039-6845
라핀부쉬,NOT,37.5375418904115,127.000383113347,서울특별시 용산구 이태원로55가길 15 ,070-8823-8181
행화촌,NOT,37.5621198047309,126.981717024453,서울특별시 중구 남대문로 52-5 ,02-771-0172 
딤딤섬(명동점),NOT,37.5634116488196,126.98288772495,서울특별시 중구 명동길 14 Noon Square 지하 1층,0507-1497-5522
명동함흥면옥,NOT,37.56274,126.9857,서울특별시 중구 명동10길 35-19 ,02-776-8430 
미성옥,NOT,37.56413,126.984,서울특별시 중구 명동길 25-11 ,02-776-8929 
일품향,NOT,37.56213060631099,126.9822392503262,서울특별시 중구 남대문로 52-13 2층,02-753-6928
개화,NOT,37.562072,126.981821,"서울특별시 중구 남대문로 52-5 대한문화예술공사 1, 2층",02-776-0508
르번미,NOT,37.5205101179976,126.974928635952,서울특별시 용산구 이촌로77길 19 이촌종합상가 1층 ,02-797-0707
미타스,NOT,37.5207393924073,126.974783764469,서울특별시 용산구 이촌로75길 16-9 ,02-792-1208
르한스,NOT,37.6041320110277,126.998523144915,서울특별시 성북구 정릉로10길 127 ,02-941-1142
청수장,NOT,37.605297,127.01077,서울특별시 성북구 정릉로 237-2 ,02-913-6176 
용마갈비,NOT,37.5955083392501,127.100331994394,서울특별시 중랑구 용마산로 498 ,02-435-4038
어썸도넛서울,NOT,37.547693524246,126.917713619072,서울특별시 마포구 독막로6길 5 1층,070-8845-8809
평안도상원냉면,NOT,37.5561130617043,126.923446601456,서울특별시 마포구 양화로 156 LG팰리스빌딩 지하 1층 푸드코트,02-332-8935
플록,NOT,37.5392766260308,127.082721466205,서울특별시 광진구 자양로19길 8 광석빌딩 1층 ,070-7797-7700
핀커피,NOT,37.5381476766317,127.088676060054,서울특별시 광진구 아차산로 413-6 ,02-6406-0103
다다미,NOT,37.5554421378695,127.081982994595,서울특별시 광진구 능동로36길 53 ,010-5772-0728
홍매반점,NOT,37.538344,127.06775,서울특별시 광진구 동일로18길 94 ,02-498-3872
포응온,NOT,37.5661151011377,127.078223556542,서울특별시 광진구 동일로72길 9 ,010-4100-4741
고고기,NOT,37.5404187841405,127.093974084703,서울특별시 광진구 아차산로 471 CS PLAZA,02-454-0092
닭진미,NOT,37.55952,126.977,서울특별시 중구 남대문시장길 22-20 ,02-753-9063
야스노야,NOT,37.546726600027,126.978409378518,서울특별시 용산구 후암로 8-1 ,02-777-0708
오르소에스프레소바,NOT,37.5488646464681,126.975955379255,서울특별시 용산구 두텁바위로1길 107 ,010-2998-5331
희락갈치,NOT,37.559913,126.977072,서울특별시 중구 남대문시장길 22-4 ,02-755-3449
계단집,NOT,37.556949565722,126.979247211045,서울특별시 중구 퇴계로6길 35 ,070-4419-7776
일미장어,NOT,37.5521,126.9744,서울특별시 용산구 후암로57길 35-15 ,02-777-4380 
은평닭곰탕 ,NOT,37.6022872455731,126.915220019727,서울특별시 은평구 연서로3길 5 ,010-9193-2027
히비,NOT,37.5654254249388,126.917205031446,서울특별시 마포구 연남로11길 32 ,0507-1336-4769
바람커피,NOT,37.561625387809116,126.92531753047939,서울특별시 마포구 동교로38길 26-7 ,010-2857-2604
에이든,NOT,37.5619389303817,126.925168608026,서울특별시 마포구 동교로38길 16 1층,010-9384-1725
스시지현,NOT,37.5606674318154,126.923601980153,서울특별시 마포구 동교로 227-7 ,0507-1473-2022
코이크,NOT,37.5622521083425,126.923886942959,서울특별시 마포구 동교로39길 8 1-2층,02-6396-4804
사심스키야키,NOT,37.5628428242687,126.926049298178,서울특별시 마포구 성미산로 190-4 ,02-6085-4040
아꽁뜨,NOT,37.5644476859182,126.926349128647,서울특별시 마포구 동교로51길 3 1층,070-4799-6871
젤라떼리아에따,NOT,37.5580495404784,126.921880850072,서울특별시 마포구 월드컵북로4길 44 JK빌딩 1층,02-6053-4222
자이온보트,NOT,37.548981,126.917498,서울특별시 마포구 양화로6길 57-7 ,070-8953-6473
레드플랜트,NOT,37.5512291674425,126.915342505913,서울특별시 마포구 양화로7길 6 레드플랜트,070-8722-0802
살사리까,NOT,37.5522382688712,126.915571436023,서울특별시 마포구 양화로11길 22 ,02-2088-3549
아트스페이스우월,NOT,37.5538350029778,126.924885862587,서울특별시 마포구 와우산로29가길 84 ,010-3337-1516
쿠바왕,NOT,37.555957,126.926453,서울특별시 마포구 와우산로29바길 5-3 ,070-7760-4000
츄로101,NOT,37.555685,126.924264,서울특별시 마포구 어울마당로 128 2층,02-336-0331
띵크프룻,NOT,37.5553166571615,126.929201591124,서울특별시 마포구 와우산로29길 14-12 ,02-3144-7077
스시노아야,NOT,37.5365636555465,127.002134363783,서울특별시 용산구 한남대로 91 나인원한남 고메494 지하2층,02-792-8260 
온블랙94,NOT,37.5482787310534,126.922383191782,서울특별시 마포구 와우산로 39-14 ,010-4046-9009
일상담미,NOT,37.5365636555465,127.002134363783,서울특별시 용산구 한남대로 91 고메이494 지하2층,02-6326-0057
한남소관,NOT,37.5341308199483,127.006010283589,서울특별시 용산구 대사관로31길 20 지하 1층,02-792-5796
푸에고,NOT,37.533972347996,127.009830247058,서울특별시 용산구 유엔빌리지길 14 ,02-797-3454
은성보쌈,NOT,37.54841,127.0223,서울특별시 성동구 독서당로 297-6 ,02-2297-9922
패딩턴,NOT,37.5482667556138,127.024425786313,서울특별시 성동구 독서당로 317-2 ,070-8220-2065
디핀옥수,NOT,37.5426912380213,127.012662054013,서울특별시 성동구 독서당로 194 지하1층 ,02-2292-4410
부부요리단,NOT,37.5428111679777,127.017539927889,서울특별시 성동구 독서당로40길 25-1 ,02-2295-5886
대화정,NOT,37.5675622624001,127.007747857693,서울특별시 중구 장충단로 249-20 ,02-2267-8484
깃대봉냉면,NOT,37.5708105464699,127.021463886656,서울특별시 중구 청계천로 400 롯데캐슬베네치아 2038호,02-762-4407 
스타사마르칸트,NOT,37.5656961493958,127.005632504153,서울특별시 중구 을지로42길 14 ,02-2277-4267
광장누룽지닭강정,NOT,37.5704827232826,127.0015433157,서울특별시 종로구 동호로 403-8 광장시장,02-2275-7592
진옥화할매닭한마리,NOT,37.57033,127.0056,서울특별시 종로구 종로40가길 18 ,02-2275-9666 
히든아워,NOT,37.5700913336734,127.001313407537,서울특별시 종로구 종로32길 21 4층 히든아워,02-2277-8902
박가네빈대떡,NOT,37.5705393128128,127.000850669375,서울특별시 종로구 종로32길 7 박가네빈대떡 ,02-2226-0847
함흥곰보냉면,NOT,37.56976,126.9973,서울특별시 종로구 창경궁로 109 세운스퀘어 401호,02-2267-6922
부촌육회,NOT,37.570344,126.999911,서울특별시 종로구 종로 200-12 광장시장,02-2267-1831
연지얼큰한동태국,NOT,37.57149,127.0003,서울특별시 종로구 종로31길 8-1 ,02-763-9397 
나마스테,NOT,37.57168,127.016,서울특별시 종로구 지봉로 18 금강빌딩,02-2232-2286
이모네설렁탕,NOT,37.570649,127.003333,서울특별시 종로구 종로 232-4 ,02-764-9898 
진주육회,NOT,37.5704978639194,127.001207236708,서울특별시 종로구 동호로 403-22  광장시장,02-2263-0366
산골막국수,NOT,37.5729106853636,127.016979400951,서울특별시 종로구 종로56길 5-7 ,02-749-6033
농축원,NOT,37.5600289027074,127.00516543518,서울특별시 중구 동호로24길 19 ,02-2278-0111
뚱뚱이할머니집,NOT,37.560373,127.005882,서울특별시 중구 장충단로 174-1 ,02-2273-5320
약수순대국,NOT,37.553017026808,127.01003588754638,서울특별시 중구 다산로8길 7 ,02-2236-5926 
처가집,NOT,37.55307483069939,127.00822517896421,서울특별시 중구 동호로11가길 22 ,02-2235-4589 
만포막국수,NOT,37.55579567980368,127.01031693140858,서울특별시 중구 동호로14길 2 ,02-2235-1357 
전주순대국,NOT,37.5647585252426,127.020115332779,서울특별시 중구 퇴계로86길 15-27 ,02-2234-8829
동백양과점,NOT,37.573403931926,126.989597437615,서울특별시 종로구 수표로28길 17-24 ,02-3144-0429
빠리가옥,NOT,37.5733168601026,126.990234088745,서울특별시 종로구 수표로28길 33-4 ,02-6083-1626
유진식당,NOT,37.57199,126.9883,서울특별시 종로구 종로17길 40 ,02-764-2835 
아지오,NOT,37.57367794033718,126.9834273822331,서울특별시 종로구 인사동11길 23 ,02-722-0211 
이문설농탕,NOT,37.5727,126.9839,서울특별시 종로구 우정국로 38-13 ,02-733-6526 
영덕회식당,NOT,37.562918,126.997997,서울특별시 중구 창경궁로1길 6 ,02-2267-0942
디올드,NOT,37.56132796753287,126.99178749569548,서울특별시 중구 퇴계로27길 2 1층,02-2268-3238
동원집,NOT,37.5633404921113,126.991346531232,서울특별시 중구 퇴계로27길 48 ,02-2265-1339
대성닭한마리,NOT,37.5633305026485,126.991506236821,서울특별시 중구 마른내로2길 30 ,02-2272-8665
강산옥,NOT,37.568875,126.999392,서울특별시 중구 청계천로 196-1 ,02-2273-1591 
이원손칼국수,NOT,37.5685910027871,126.999672984722,서울특별시 중구 동호로37길 33-16 ,없음
황평집,NOT,37.564021,126.996107,서울특별시 중구 마른내로 74 ,02-2266-6875
은주정,NOT,37.568642,126.999731,서울특별시 중구 창경궁로8길 32 ,02-2265-4669 
문화옥,NOT,37.568388,126.997805,서울특별시 중구 창경궁로 62-5 ,02-2265-0322 
순흥옥,NOT,37.566955,126.999989,서울특별시 중구 을지로33길 9 ,02-2265-0953
을지깐깐,NOT,37.5657437884452,126.991063733657,서울특별시 중구 을지로12길 12 2층,02-6368-6788
안동장,NOT,37.56605,126.9916,서울특별시 중구 을지로 124 ,02-2266-3814 
오구반점,NOT,37.56654,126.9898,서울특별시 중구 수표로 60 ,02-2267-0516 
동강나루터,NOT,37.5664299904795,126.988973372471,서울특별시 중구 을지로 99 2층,02-2273-5989
스톡드,NOT,37.525085019703,126.962278322367,서울특별시 용산구 한강대로7길 18-13 나영전자 2층,070-7543-9847
중화객잔수,NOT,37.5315605721866,126.971835159116,서울특별시 용산구 한강대로48길 17-6 1층  ,02-798-5335
쇼니노,NOT,37.526325161342,126.963431504099,서울특별시 용산구 한강대로21길 17-18 ,02-6954-7655
포포유,NOT,37.5261414531093,126.96463494765,서울특별시 용산구 한강대로 57 ,02-2266-9886 
낙하산커피,NOT,37.5309686382096,126.971558876438,서울특별시 용산구 한강대로46길 25 101호,010-5862-5505
명화원,NOT,37.536291,126.974574,서울특별시 용산구 한강대로 202 ,02-792-2969
두쓰멍,NOT,37.5372473510359,126.965778473193,서울특별시 용산구 원효로 210-5 ,070-7537-0635
미티크,NOT,37.53866936056168,126.96855390929682,서울특별시 용산구 백범로87길 28 2층,010-2090-9089
리틀갱스터,NOT,37.5391665336977,126.957858428878,서울특별시 용산구 새창로12길 11-3 ,02-3272-4058
문배동육칼,NOT,37.536622745972274,126.97032435495488,서울특별시 용산구 백범로90길 50 ,02-713-6204
창성옥,NOT,37.53638918177256,126.96040845953524,서울특별시 용산구 새창로 124-10 ,02-718-2878 
히토리우동,NOT,37.5585656034033,127.039448556777,서울특별시 성동구 마조로3길 9 ,02-2291-3172
핏제리아달포르노,NOT,37.561541939142,127.040824841501,서울특별시 성동구 마조로9길 6-5 ,02-2298-2782
은성집,NOT,37.544346,126.973233,서울특별시 용산구 한강대로84길 11-16 ,02-797-2855
성천막국수,NOT,37.569856,127.057795,서울특별시 동대문구 답십리로48나길 2 ,02-2244-5529
진미,NOT,37.5679425897426,126.931024715211,서울특별시 서대문구 연희맛로 36 ,02-322-8338 
연희곰탕,NOT,37.5697957773223,126.930905170249,서울특별시 서대문구 증가로 17 엘리트빌딩 1층,02-336-1801
카페코지,NOT,37.5594925028349,126.943950582631,서울특별시 서대문구 이화여대길 88-19 ,070-4307-4192
오리지날분식,NOT,37.5593399785272,126.943602557565,서울특별시 서대문구 이화여대길 88-9 ,02-362-4295
유닭스토리 ,NOT,37.557083987471,126.937376871643,서울특별시 서대문구 연세로4길 7 1층.,02-6012-9563
써밋컬쳐,NOT,37.5543646847543,126.933740790083,서울특별시 마포구 신촌로14안길 11 엘루체 102호,070-7762-1009
봉이만두,NOT,37.5903945486139,127.060947878604,서울특별시 동대문구 망우로21길 40 ,02-2215-1122
릴리우드,NOT,37.5537203977791,126.932655147861,서울특별시 마포구 서강로11길 18 ,070-4154-3388 
옥천옥,NOT,37.57244,127.027,서울특별시 동대문구 하정로 16 2층,02-2292-8201 
영화장,NOT,37.59654,127.0609,서울특별시 동대문구 휘경로 3-8 ,02-967-9595
남촌회관,NOT,37.567146723828,126.978457591358,서울특별시 중구 세종대로20길 19 유성빌딩,027300709
유림면,NOT,37.564207,126.976068,서울특별시 중구 서소문로 139-1 ,02-755-0659
정원순두부,NOT,37.562096678179984,126.97415796260648,서울특별시 중구 세종대로11길 33 삼성본관빌딩 뒤편 골목 내,02-755-7139 
강서면옥,NOT,37.56197,126.974,서울특별시 중구 세종대로11길 35 ,02-752-1945
동원민물장어,NOT,37.56254,126.97786,서울특별시 중구 세종대로14길 22-6 ,02-734-9776
초류향,NOT,37.567432,126.980473,서울특별시 중구 다동길 24-10 ,02-775-2668 
원흥,NOT,37.567822,126.981712,서울특별시 중구 다동길 46 다동빌딩 1층,02-3789-3624
포썸,NOT,37.5941562838985,127.01821856847,서울특별시 성북구 동소문로 125 1층,02-921-3061
카페스파츠,NOT,37.5907066139965,127.020140090908,서울특별시 성북구 보문로30나길 29-1 ,010-2877-5474
멜로워성수더플래그십,NOT,37.5425331453144,127.053233219739,서울특별시 성동구 성수이로7길 39 ,02-499-1112
강풍돼지갈비,NOT,37.590734,127.01834,서울특별시 성북구 보문로34길 52 ,02-922-5252
탐광,NOT,37.5431753629727,127.055419600647,서울특별시 성동구 연무장5가길 26 ,070-8869-3333
전자방,NOT,37.54830923383195,127.05371147824512,서울특별시 성동구 성수일로12길 23 ,02-420-1193
뺑드에코,NOT,37.5427191811958,127.054071597609,서울특별시 성동구 연무장길 44 삼정디지탈프라자 2층,02-462-4730 
이북집찹쌀순대,NOT,37.54322935056174,127.05764109707678,서울특별시 성동구 성수이로20길 10 대한빌딩 101호,02-464-2270 
소바마에,NOT,37.546808145881,127.047007351689,서울특별시 성동구 왕십리로4길 26-20 ,010-6526-6226
로우커피스탠드,NOT,37.547119326953506,127.04661318185674,서울특별시 성동구 왕십리로4길 28-2 ,010-4334-2387
샌드카베,NOT,37.5468294033531,127.043004658207,서울특별시 성동구 서울숲4길 22-18 ,010-8824-7531
스웨덴피크닉서울숲,NOT,37.5464716847409,127.044042241047,서울특별시 성동구 왕십리로5길 9-20 ,070-8670-3456
계월곰탕,NOT,37.5395599858903,127.047631685043,서울특별시 성동구 성덕정3길 8 1층  ,070-8703-0310
제제,NOT,37.5478966119798,127.042574916474,서울특별시 성동구 서울숲길 46-1 ,070-8833-6999
카모플라쥬커피,NOT,37.5489909714797,127.045691271981,서울특별시 성동구 아차산로1길 9 ,010-5350-1530
전주콩나물국밥,NOT,37.546242262980655,127.04978109979747,서울특별시 성동구 아차산로 50-1 마루빌딩 2층,02-498-4840 
동신화로,NOT,37.5780255567709,126.89559947123,서울특별시 마포구 매봉산로2길 25-8 ,0507-1437-8892
칼라스커피,NOT,37.5628324702465,126.915330283401,서울특별시 마포구 월드컵북로16길 16 1층,02-3494-2388
맛있는밥상차림,NOT,37.5776633052701,126.893823873558,서울특별시 마포구 월드컵북로44길 76 ,02-308-0011
비건다움,NOT,37.5691535548616,126.913300690329,서울특별시 마포구 성암로 28 가좌행복주택 104호,010-2838-9884
쌍다리돼지불백,NOT,37.59345,126.9957,서울특별시 성북구 성북로23길 4 ,02-743-0325 
비양도,NOT,37.59456387645758,126.99230471440727,서울특별시 성북구 성북로 158 ,02-741-1588 
성북동돼지갈비본점,NOT,37.59324,126.996,서울특별시 성북구 성북로 115 ,02-764-2420 
목포세발낙지,NOT,37.5775527985075,126.969595934945,서울특별시 종로구 필운대로 16 ,02-739-5108
팔마서촌,NOT,37.5777056259239,126.969669004548,서울특별시 종로구 자하문로5길 39 ,010-7678-0170
통인동커피공방,NOT,37.5763032229312,126.97000069775,서울특별시 종로구 사직로 101 ,02-733-9808 
쏘리에스프레소바,NOT,37.5764842250867,126.9733484421,서울특별시 종로구 자하문로2길 12 1층,010-9536-9659
오스테리아소띠,NOT,37.5789590954951,126.972259848556,서울특별시 종로구 자하문로10길 10-19 ,02-730-1019
도량,NOT,37.5779680592302,126.972504517859,"서울특별시 종로구 자하문로6길 6 백송빌딩 2, 3층 ",02-739-0147
창성갈비,NOT,37.5796409879546,126.971587241588,서울특별시 종로구 자하문로 40-1 ,02-738-0247 
커피한잔,NOT,37.5770806892654,126.967937657713,서울특별시 종로구 사직로9길 16-1 ,02-722-7022
스시누하,NOT,37.5791247862862,126.968651810412,서울특별시 종로구 필운대로 35-1 ,02-725-2416 
뼈탄집,NOT,37.5764202233299,126.971667142925,서울특별시 종로구 자하문로1길 13 ,02-737-9966
부암동빙수집,NOT,37.592721,126.965393,서울특별시 종로구 창의문로 136 ,02-394-8288
소소한풍경,NOT,37.59364,126.966,서울특별시 종로구 자하문로40길 75 ,02-395-5035
독도16도,NOT,37.579470207527,126.968577173605,서울특별시 종로구 필운대로5가길 2 ,010-8799-1811
한옥집김치찜,NOT,37.5672716927969,126.964330722367,서울특별시 서대문구 통일로9길 12 ,02-362-8653 
아현동간장게장,NOT,37.55527962147538,126.955604455409,서울특별시 마포구 굴레방로 13 ,02-312-7530 
장호왕곱창,NOT,37.5644375648557,126.967286479534,서울특별시 서대문구 통일로 107-13 ,02-392-5070
만가타,NOT,37.5801813093084,126.980982059626,서울특별시 종로구 삼청로2길 40-5 ,02-722-8151
월영당서울,NOT,37.5799395860304,126.98163557165,서울특별시 종로구 북촌로5길 62 ,070-8866-8613
단풍나무집,NOT,37.58681,126.982,서울특별시 종로구 삼청로 130 ,02-730-7461 
더그릭,NOT,37.576289623047,126.979764398735,서울특별시 종로구 삼청로 4 광성빌딩 5층,02-720-3537
봉희설렁탕,NOT,37.59308,126.9138,서울특별시 은평구 증산로 413 동현빌딩,02-302-9754
어머니와아들,NOT,37.5994008243308,126.948635967562,서울특별시 서대문구 홍은중앙로 100-1 ,02-391-0411
크레이지카츠,NOT,37.550452930919654,126.90971180237112,서울특별시 마포구 포은로2나길 44 ,070-8621-7219
양화정,NOT,37.549391,126.911976,서울특별시 마포구 월드컵로1길 17 ,02-323-5777 
커퍼시티,NOT,37.5527729319837,126.90752755267,서울특별시 마포구 동교로 48 ,0507-1371-4891
뉴욕아파트먼트,NOT,37.5510079695241,126.91164899787,서울특별시 마포구 월드컵로3길 14 마포 한강 2차 푸르지오 217호,02-333-7626
합정옥,NOT,37.549595746738795,126.91045519529965,서울특별시 마포구 양화로1길 21 2층,02-322-4822
커피가게동경,NOT,37.55591,126.903538,서울특별시 마포구 망원로6길 21 ,070-4845-0619
올웨이즈어거스트로스터스,NOT,37.5561117959526,126.90352079066,서울특별시 마포구 망원로6길 19 ,0507-1384-1622
포트레이트커피바,NOT,37.556534693543,126.906506819532,서울특별시 마포구 포은로8길 32 국일빌딩 1층,0507-1358-4693
망원동즉석우동,NOT,37.5542486631229,126.911148349271,서울특별시 마포구 동교로 83 ,02-336-1330
푸드실방,NOT,37.5528119921071,126.906329720168,서울특별시 마포구 포은로 61 ,010-4598-8120
부영각,NOT,37.542487,126.939493,서울특별시 마포구 토정로 268 ,02-716-2413 
원조조박집,NOT,37.5398101222137,126.944373902667,서울특별시 마포구 토정로37길 3 ,02-712-7462 
스시모리지,NOT,37.5477060679608,126.939680201636,서울특별시 마포구 광성로6길 54 ,010-6562-9566
신성각,NOT,37.54468,126.9577,서울특별시 마포구 임정로 55-1 ,02-716-1210 
후엘고,NOT,37.5490468747023,126.947882129056,서울특별시 마포구 마포대로11길 118 ,02-712-9265
베이스이즈나이스,NOT,37.539624938496,126.949105836145,서울특별시 마포구 도화2길 20 ,0507-1306-6724
아소정,NOT,37.546568,126.946358,서울특별시 마포구 백범로25길 9 ,02-703-5959 
도하정,NOT,37.538037975165935,126.94658554632935,서울특별시 마포구 마포대로4길 38 1층,010-9440-6639
마포나루,NOT,37.53936,126.9477,서울특별시 마포구 삼개로 11 ,02-711-5959 
코끼리분식,NOT,37.54028,126.9488,서울특별시 마포구 도화2길 3 ,02-717-9061
본점최대포,NOT,37.542211,126.952016,서울특별시 마포구 새창로 17 ,02-712-9242 
단정,NOT,37.5447477438441,126.948258201287,서울특별시 마포구 백범로 152 공덕파크자이 102동 7호 단정,010-2130-0095
스키당,NOT,37.5464259604891,126.943949956629,서울특별시 마포구 백범로20길 12 2층,010-5282-2096
술수,NOT,37.5463681672215,126.943489553417,서울특별시 마포구 백범로16안길 25 ,0507-1415-1984
정정,NOT,37.5462286708302,126.944201657706,서울특별시 마포구 백범로24길 27 ,0507-1326-4058
앤티도트,NOT,37.5470233195855,126.942076474986,서울특별시 마포구 대흥로 80-15 2층,010-7753-9451
브루니치,NOT,37.5447477438441,126.948258201287,서울특별시 마포구 백범로 152 공덕파크자이상가 102동 15호,02-711-1604
곰탕반,NOT,37.544749366441955,126.94826001068026,서울특별시 마포구 백범로 152 공덕파크자이 상가 1층,02-712-1801
복성각,NOT,37.54225880774428,126.94781364433918,서울특별시 마포구 마포대로 63-8 ,02-703-3700 
이요이요스시,NOT,37.55016,126.9529,서울특별시 마포구 마포대로 167 래미안5차상가 106호,02-306-0372
학림,NOT,37.581895,127.001663,서울특별시 종로구 대학로 119 ,02-742-2877 
그레이스국밥,NOT,37.5480612095083,126.954720753238,서울특별시 마포구 마포대로12길 18 ,02-6409-0900
마띠에르,NOT,37.5823153109913,126.999286412043,서울특별시 종로구 대학로11길 41-6 ,02-745-9717
도도야,NOT,37.5799900420491,127.004253318384,서울특별시 종로구 동숭길 39 ,02-741-5959
한성옥해장국,NOT,37.57244,126.9794,서울특별시 종로구 삼봉로 42-1 ,02-735-8121 
흥진옥,NOT,37.571359,126.98026,서울특별시 종로구 종로5길 19-12 ,02-732-2214 
코야마,NOT,37.5709617749066,126.981437983842,서울특별시 종로구 종로 33 그랑서울 2층 201호,0507-1353-7988
따빠마드레,NOT,37.573018,126.969103,서울특별시 종로구 경희궁길 43 ,02-722-4199 
서린낙지,NOT,37.5708444878121,126.979923668151,서울특별시 종로구 종로 19 르메이에르종로타운1,02-735-0670
오가와,NOT,37.57202928626468,126.97429489709765,서울특별시 종로구 새문안로5길 19 로얄빌딩 지하 1층,02-735-1001
광화문집,NOT,37.57131,126.975,서울특별시 종로구 새문안로5길 12 ,02-739-7737 
카페이마,NOT,37.569723,126.977718,서울특별시 종로구 세종대로 152 일민미술관 1층,02-2020-2088
커피친구,NOT,37.57253,126.9818,서울특별시 종로구 삼봉로 81 두산위브파빌리온 104호,02-725-0179
안래홍,NOT,37.571651,126.982582,서울특별시 종로구 종로7길 43 ,02-739-8013
일품당,NOT,37.57146,126.9751,서울특별시 종로구 세종대로23길 25 ,02-733-4949 
할머니해장국,NOT,37.627962,127.043454,서울특별시 강북구 월계로37길 137-6 ,02-915-1541
수유골목냉면,NOT,37.6300758720915,127.024026578559,서울특별시 강북구 솔매로45길 92  ,02-988-6580
정대,ATTENTION,37.5729199136655,126.970063182815,서울특별시 종로구 경희궁길 36 경희당빌딩 2층,02-737-3204
스시성북,ATTENTION,37.5936027665025,127.000787409179,서울특별시 성북구 성북로 74 ,없음
로스옥(한남점),ATTENTION,37.5343180384265,127.006194266565,서울특별시 용산구 한남대로21길 14 ,02-790-1025
더형제,ATTENTION,37.5428436189268,126.95133595616,서울특별시 마포구 마포대로 92  효성해링턴스퀘어 B동 1층 14호,0507-1442-0254
에이프릴커피,ATTENTION,37.537321485981,127.002192542405,서울특별시 용산구 이태원로54길 19 ,없음
다크에디션커피,ATTENTION,37.5690018837641,126.927996029512,서울특별시 서대문구 연희로11마길 12 ,010-4467-7939
로익스커피,ATTENTION,37.5499597470726,126.936606294055,서울특별시 마포구 광성로 31-1 춘추가원 1층,02-6949-1248
버치커피,ATTENTION,37.5405440831839,127.059673142014,서울특별시 성동구 성수이로16길 27 1층,02-6083-0186
호라파,NEW,37.5793929163302,126.971100761039,서울특별시 종로구 자하문로 37-1 ,0507-1414-0216
마사마드레베이크샵,NEW,37.5804439635136,126.969115309952,서울특별시 종로구 자하문로7길 68-3 ,0507-1331-7234
밋보어서울,NEW,37.5408654463888,127.047850218608,서울특별시 성동구 성수일로 1 ,0507-1330-1866
허니비서울,NEW,37.5350929677353,127.000940328088,서울특별시 용산구 대사관로5길 14-3 지하1층,02-3785-1777
안녕브릭샌드,NEW,37.5744668688197,126.983552182559,서울특별시 종로구 인사동길 49 안녕인사동 1층 (M층),0507-1333-4974
오스테리아현,NEW,37.5513250013994,127.076101717325,서울특별시 광진구 능동로 237 리스빌딩 1층,02-6949-3346
포컬포인트,NEW,37.5542457145629,126.968794192644,서울특별시 용산구 청파로 387 포컬포인트,0507-1384-7336
아트와떵,NEW,37.5633377534164,126.9273747744,서울특별시 마포구 동교로50길 25 ,010-3249-5325
만평우동(홍대점),NEW,37.5523787788854,126.920569825328,서울특별시 마포구 잔다리로6길 25 재륜빌딩 지하1층,02-324-7801
베지위켄드,NEW,37.5344826645458,127.007517811442,"서울특별시 용산구 한남대로 60 금호리첸시아 디101, 102호",0507-1350-6553
쿠시바,NEW,37.5563424349889,127.010984511239,서울특별시 중구 동호로12길 23 지하1층,070-4150-0915
코튼서울,NEW,37.5747420354664,126.984923231338,서울특별시 종로구 인사동12길 17 ,0507-1389-5865
스쿠퍼젤라또(삼각지점),NEW,37.5332380352776,126.973698393164,서울특별시 용산구 한강대로62길 37 ,0507-1369-7623
픽픽,NEW,37.5471538865987,127.043159648606,서울특별시 성동구 서울숲4길 20-1 픽픽,0507-1409-3028
디진테제하이카페,NEW,37.5479201849315,127.044137696679,서울특별시 성동구 왕십리로 115 헤이그라운드 서울숲점 10층,0507-1413-0360
와아,NEW,37.5462046110775,127.049328210947,서울특별시 성동구 상원2길 1-10 3층,0507-1366-3924
데비스,NEW,37.5795532687287,126.989150422174,서울특별시 종로구 창덕궁길 45 ,0507-1378-8215
자하,NEW,37.5728686910564,126.97096076384,서울특별시 종로구 경희궁2길 7 ,0507-1473-0318
JL디저트바,NOT_RECORD,37.5339030611536,127.005723679677,서울특별시 용산구 대사관로31길 7-2 3층,02-543-6140 
심은,NOT_RECORD,37.5918586065082,127.014025610945,서울특별시 성북구 보문로40길 11 1층 101호 ,070-8657-3837
스너그(용산점),NOT_RECORD,37.538962823278,126.959156808632,서울특별시 용산구 새창로 92 청원빌딩,02-6052-1711
명동정,NOT_RECORD,37.5615704188052,126.988471331506,서울특별시 중구 삼일대로 299 이화빌딩1층 (이화빌딩옥외주차장내),02-3789-5130
대구집,NOT_RECORD,37.5713825413725,127.040519485291,서울특별시 성동구 살곶이길 18 ,02-2294-6349
데빌스바지니코,NOT_RECORD,37.5452128980791,126.914298752246,서울특별시 마포구 토정로 28-7 ,010-7187-4781
익스첼(합정본점),NOT_RECORD,37.545772266644,126.914711367454,서울특별시 마포구 토정로 33-1 1층,02-6956-1358
비틀버그,NOT_RECORD,37.5559075925988,126.925494129838,서울특별시 마포구 어울마당로 136-9 1층,070-8824-1116
쓰나미라멘(홍대본점),NOT_RECORD,37.5558534022974,126.926725403177,서울특별시 마포구 와우산로29마길 6 1층,02-333-5828
틸로스터스,NOT_RECORD,37.5576844654565,126.928136734708,서울특별시 마포구 신촌로2길 5-14 1층,010-4147-6158
일베키오,NOT_RECORD,37.5763802659537,126.894702467922,서울특별시 마포구 월드컵북로 332-12 안언하우스 1층,02-302-0944
도우또,NOT_RECORD,37.5647073799978,126.994037176372,서울특별시 중구 을지로18길 42 ,070-8666-7663
캄포,NOT_RECORD,37.5333132707774,127.003213965254,서울특별시 용산구 대사관로 46-1 102호,010-4445-7232
우소츠케,NOT_RECORD,37.534305897775,126.974502679788,서울특별시 용산구 한강대로62나길 14 ,02-792-1017
중림동물고기,NOT_RECORD,37.557338261969,126.967984372159,서울특별시 중구 만리재로35길 50-1 ,010-2394-4411
함초간장게장,NOT_RECORD,37.5620005331406,126.986563787577,서울특별시 중구 명동8가길 27 션샤인빌딩 지하1층,02-318-1624
리얼타운비즈니스타코,NOT_RECORD,37.595210898234,127.085606482423,서울특별시 중랑구 면목로 485 1층 103호,010-4184-7964
머구리야,NOT_RECORD,37.5380767541768,126.969865080417,서울특별시 용산구 백범로90길 74 이안용산,010-4171-5049
늘잇,NOT_RECORD,37.5401120120104,126.948466319802,서울특별시 마포구 도화길 22-6 ,010-8790-6897
미트미츠,NOT_RECORD,37.6068235645264,126.968112552501,서울특별시 종로구 평창12길 8-11 ,070-7766-3994
뚝섬집,NOT_RECORD,37.5325217110531,127.077443439709,서울특별시 광진구 뚝섬로 610-1 ,02-6956-4938
벨라스가든(서울숲점),NOT_RECORD,37.5432175536482,127.044977927876,서울특별시 성동구 왕십리로 66-10 1층 ,02-466-4246
델리카테슨,NOT_RECORD,37.546581916376,126.914354783381,서울특별시 마포구 토정로3길 19 ,010-5138-0813
한술식당(프리미엄연남점),NOT_RECORD,37.5627193786384,126.926178676706,서울특별시 마포구 성미산로 190-3 지층,070-8888-6969
발라닭(신당점),NOT_RECORD,37.5663848991542,127.017366274178,서울특별시 중구 퇴계로 411-34 1층,02-6952-3221
흐쎄트,NOT_RECORD,37.5569661389713,126.9077130721,서울특별시 마포구 월드컵로23길 20 망원빌 202호,010-5965-2112
콘웨이커피,NOT_RECORD,37.5546125474078,127.009633208843,서울특별시 중구 다산로11길 13 복장문화회관 1층,010-2902-6606
솔티드,NOT_RECORD,37.5553209546395,127.079075330729,서울특별시 광진구 능동로32길 5 ,070-8775-2215
라멘트럭,NOT_RECORD,37.5475004120123,126.922602173821,서울특별시 마포구 독막로14길 31 1층 ,02-336-8456
베타서비스,NOT_RECORD,37.5657709109319,126.989973041455,서울특별시 중구 수표로 52 3층,010-2813-7743
마닐로우,NOT_RECORD,37.5791685656575,126.923893047343,서울특별시 서대문구 거북골로 37-5 ,02-304-9963
6까사,NOT_RECORD,37.5583800714359,127.079802901097,서울특별시 광진구 능동로39길 3 1층,02-6369-6669
코너피자조인트,NOT_RECORD,37.5338461180202,126.994278926911,서울특별시 용산구 보광로 124 ,02-6263-6606
도나르스브레드,NOT_RECORD,37.5323529435483,126.992100673191,서울특별시 용산구 녹사평대로26가길 9 2층,02-322-8750
비스트로세노,NOT_RECORD,37.5555938739134,126.926514249091,서울특별시 마포구 와우산로29마길 12 ,010-8749-2085
온돈부리,NOT_RECORD,37.5820926424763,126.888984720113,서울특별시 마포구 월드컵북로54길 25 ,02-303-0626
장수닭한마리손칼국수,NOT_RECORD,37.5715419143307,127.080725014456,서울특별시 광진구 답십리로 364 ,02-494-6121
써스티써스데이,NOT_RECORD,37.5356297845795,127.000859437294,서울특별시 용산구 이태원로54길 62-4 1층,0507-1315-8802
구의농원,NOT_RECORD,37.5395242756404,127.092485388889,"서울특별시 광진구 아차산로 453-1 1, 2 층",02-456-0365
지동닭갈비,NOT_RECORD,37.6261736800918,127.076239587119,서울특별시 노원구 동일로190길 58 ,02-6369-3255
이어커피로스터스,NOT_RECORD,37.5459656130831,126.945236466602,서울특별시 마포구 백범로24길 9 1층,02-706-9313
와이(Y)704,NOT_RECORD,37.5433407736849,127.053889866916,서울특별시 성동구 연무장길 39-15 2층,010-7592-7224
직각식탁,NOT_RECORD,37.5265705340683,126.963528110228,서울특별시 용산구 한강대로21길 17-12 ,010-8832-8342
와이덴성수,NOT_RECORD,37.5475565627229,127.054447732155,서울특별시 성동구 성수일로12길 34 1층,010-2704-5492
베베도넛,NOT_RECORD,37.5343936424521,126.974863231981,서울특별시 용산구 한강대로62나길 20 101호,010-3635-5802
우희,NOT_RECORD,37.5603931542576,127.01262588851,서울특별시 중구 동호로12길 119 1층,010-9574-8991
모이정,NOT_RECORD,37.5625848184185,126.920428263461,서울특별시 마포구 성미산로 122 1층,02-338-2885
모이정(홍대점),NOT_RECORD,37.5503037491009,126.920256069177,서울특별시 마포구 독막로7길 60 2층,02-336-2885
물결한강,NOT_RECORD,37.5605659711705,126.885851899473,서울특별시 마포구 마포나루길 296 ,010-4815-1145
몽쥬빠티세리,NOT_RECORD,37.5666029325047,127.024082467223,서울특별시 성동구 왕십리로 410 센트라스 상가E동 104호,02-6448-3241
고부장,NOT_RECORD,37.5919829815487,127.018917452104,서울특별시 성북구 동소문로24길 37 2층,070-8657-2425
연희보리밥,NOT_RECORD,37.5680066583233,126.930576867248,서울특별시 서대문구 연희맛로 33 1층,02-2088-2253
월순철판동태찜,NOT_RECORD,37.5480210316058,126.97774372502,서울특별시 용산구 후암로 23-1 ,02-3789-0504
이화원(청구점),NOT_RECORD,37.5592821999279,127.012858171038,서울특별시 중구 다산로 175 명덕빌딩,02-2236-1888
비포블루밍,NOT_RECORD,37.559608616725,126.925064436597,서울특별시 마포구 양화로23길 28 3층 ,010-2607-3146
젠틀키친,NOT_RECORD,37.5663316572964,126.919964387949,서울특별시 마포구 동교로51길 129-4 3층,010-7233-9766
호헌장담,NOT_RECORD,37.5985318642041,127.057144943613,서울특별시 동대문구 천장산로7길 10-1 인성빌딩 2층,02-6213-0220
서울낙업,NOT_RECORD,37.5416113618865,127.070842363061,서울특별시 광진구 동일로22길 117-23 ,02-2205-5055
아노브피자,NOT_RECORD,37.5337247389211,126.992424902392,서울특별시 용산구 이태원로20가길 7-5 ,02-6052-6606
아노브피자(연남점),NOT_RECORD,37.5635325649477,126.925377878746,서울특별시 마포구 동교로 267 ,02-6082-6606
더바이글,NOT_RECORD,37.5574065258621,126.904292115373,서울특별시 마포구 포은로 117 1층 103호 ,010-7526-2383
언덕다방,NOT_RECORD,37.5258105386776,126.996726398505,서울특별시 용산구 장문로6길 106 ,010-7705-9222
푸푸딩,NOT_RECORD,37.5589063282429,126.943038576035,서울특별시 서대문구 신촌역로 22-5 박스퀘어 2층 37호,070-806-53267
스프링딜라잇,NOT_RECORD,37.6004080517042,127.03510382314,서울특별시 성북구 종암로28길 65 ,010-4376-3214
레이트체크아웃,NOT_RECORD,37.562830316373,126.925644336395,서울특별시 마포구 동교로 262-9 2층,010-4019-2524
어부의딸쭈꾸미숯불구이,NOT_RECORD,37.5418257136081,126.951006551177,서울특별시 마포구 도화길 50 ,02-715-8889
이빠네마그릴,NOT_RECORD,37.556883,126.937342,서울특별시 서대문구 연세로4길 6 2층,02-365-6118 
로스트피그(마포점),NOT_RECORD,37.5560989524232,126.909020059875,서울특별시 마포구 동교로9길 57 ,02-332-9279
프랑제리(피어신촌점),NOT_RECORD,37.5496213115507,126.931255709052,서울특별시 마포구 서강로 75-16 이랜드 PEER 신촌,02-336-0812
펠리칸카페,NOT_RECORD,37.5475053666579,126.922463546076,서울특별시 마포구 독막로14길 27 ,02-338-8300
누,NOT_RECORD,37.5808750287322,126.966898217778,서울특별시 종로구 옥인2길 4 ,0507-1394-1064
네기라이브,NOT_RECORD,37.5436475647062,127.056584886113,서울특별시 성동구 성수이로 97 5층,02-466-2490
원즈커피,NOT_RECORD,37.5441865873771,127.086787844412,서울특별시 광진구 자양로32길 32 ,010-3030-0598
카페공명(홍대점),NOT_RECORD,37.549904803701,126.9220348814,"서울특별시 마포구 와우산로17길 11-8 1층, 2층, 3층",070-8870-6304
카페네이,NOT_RECORD,37.5574153066539,126.90456553807,서울특별시 마포구 망원로 69 1층 102호,070-7771-7778
초식곳간,NOT_RECORD,37.55825515906,126.946068722683,서울특별시 서대문구 이화여대2가길 19 ,02-365-5679
브라주카그릴,NOT_RECORD,37.5676347080798,126.978984811389,서울특별시 중구 무교로 19 더익스체인지서울몰 3층,02-3789-2330
참나무본가(은평점),NOT_RECORD,37.6333643585248,126.917852171711,서울특별시 은평구 통일로 1020 헤센스마트,02-354-9702
7카롱,NOT_RECORD,37.5921650866509,127.054111088129,서울특별시 동대문구 경희대로4길 29 ,010-8227-7848
이프프커피,NOT_RECORD,37.5671458986322,126.995451191045,서울특별시 중구 을지로 157 을지로 대림상가 3층 377호,0507-1374-4507
토쿠라멘,NOT_RECORD,37.5915745505929,127.02007646418,서울특별시 성북구 보문로34가길 2 1층,010-8266-8854
일야커피,NOT_RECORD,37.5434565384669,126.947277472141,서울특별시 마포구 독막로 312 ,02-715-2500
고깃집왕고을,NOT_RECORD,37.5631552255356,127.034132639355,서울특별시 성동구 왕십리로24길 10-2 ,02-2292-3399
틸애프터,NOT_RECORD,37.5589990583275,126.924727661332,서울특별시 마포구 양화로19길 22-30 1층,02-2088-3309
오늘통닭(신촌직영점),NOT_RECORD,37.5590445216786,126.936467197506,서울특별시 서대문구 연세로11길 8 ,02-3144-0692
쑥띵,NOT_RECORD,37.54310544254,127.071814757048,서울특별시 광진구 능동로 137 ,0507-0178-3940
미소,NOT_RECORD,37.6182161017816,127.07591204414,서울특별시 노원구 동일로 986 노원프레미어스엠코,010-8695-5510
홈보이서울,NOT_RECORD,37.5762076645137,126.973148168228,서울특별시 종로구 사직로 127-14 다자연빌딩,02-2274-4371
죠죠,NOT_RECORD,37.5414819643497,127.061023795592,서울특별시 성동구 연무장17길 7 ,010-3378-8757
구스카토커피 마포대흥점,NOT_RECORD,37.5451151551748,126.940033304527,서울특별시 마포구 큰우물로 4 ,02-711-3690
킷사텐(서울역센트럴자이점),NOT_RECORD,37.5547908528642,126.964454371144,서울특별시 중구 만리재로 175 서울역센트럴자이 제401동 제지1층 제401-5호,0507-1377-9054
일사삼,NOT_RECORD,37.5871026073739,126.982452741417,서울특별시 종로구 북촌로 143 143,010-4876-0552
베이커리봉교,NOT_RECORD,37.5587854480624,126.911020390226,서울특별시 마포구 성미산로 25 ,02-332-8030
벅벅(이태원점),NOT_RECORD,37.5332808940217,126.992243018397,서울특별시 용산구 이태원로20길 24 ,0507-1412-9916
오파티세리,NOT_RECORD,37.6095536861858,126.916680466459,서울특별시 은평구 연서로 120-1 ,010-6741-6811
사직로,NOT_RECORD,37.5762076645137,126.973148168228,서울특별시 종로구 사직로 127-14 2층,02-733-4371
간판없는가게,NOT_RECORD,37.5737946589409,126.990249308503,서울특별시 종로구 돈화문로11다길 36 ,02-3673-1018
을지다락,NOT_RECORD,37.5637445047995,126.991427412426,서울특별시 중구 수표로10길 19 4층,070-8844-4484 
마젠타,NOT_RECORD,37.5463287648769,126.941216094498,서울특별시 마포구 독막로 250 ,02-711-8975
우탕,NOT_RECORD,0.0,0.0, ,070-8648-0363
칠돈가(광화문점),NOT_RECORD,37.5706253564255,126.976011435792,서울특별시 종로구 새문안로9길 9 ,02-722-2925
칠돈가(용산점),NOT_RECORD,37.5257032589667,126.961908986221,서울특별시 용산구 한강대로7길 34-32 ,02-749-2925
도덕과규범,NOT_RECORD,37.5489724360164,126.924508249611,서울특별시 마포구 독막로19길 32 1층,0507-1495-7807
르솔레이,NOT_RECORD,37.5371260651579,127.001830244266,서울특별시 용산구 이태원로54길 28 ,010-8930-6371
북경원,NOT_RECORD,37.5616429635579,126.977362888243,서울특별시 중구 남대문로1길 13 ,02-319-2009
멘야하나비(합정점),NOT_RECORD,37.5525171351569,126.916851627507,서울특별시 마포구 잔다리로7안길 14 멘야하나비 합정점,070-8888-8001
노이,NOT_RECORD,37.5398100400745,127.055990552475,서울특별시 성동구 성수이로12길 8 ,0507-1438-7576
호텔나루서울레스토랑부아쟁,NOT_RECORD,37.5373071864777,126.944273138606,서울특별시 마포구 마포대로 8 호텔 나루 서울 엠갤러리 22층,02-6410-1140
벅벅,NOT_RECORD,37.5891858088375,126.99475351986,서울특별시 종로구 명륜길 48 ,02-765-5059
에이엘티,NOT_RECORD,37.5684574168521,126.932423872164,"서울특별시 서대문구 연희로 122 경교빌딩 104, 105호",02-323-1026
성수로운,NOT_RECORD,37.5475441473972,127.055376778184,서울특별시 성동구 아차산로7길 28 성수쇼핑센터 1층,02-498-5174
양양면옥,NOT_RECORD,37.5332088120956,127.076200292098,서울특별시 광진구 뚝섬로 595 더블랙자양 1층,02-457-5037
채담화,NOT_RECORD,37.5439965080669,126.947481225372,서울특별시 마포구 독막로 311 재화스퀘어 지하1층,02-706-5666
원동미나리삼겹살,NOT_RECORD,37.5422475366416,126.972291560606,서울특별시 용산구 한강대로77길 4-1 ,010-2842-4703
알돈,NOT_RECORD,37.5682179109709,126.981614792564,"서울특별시 중구 다동길 43 한외빌딩 지하 1층, 11호",0507-1328-9394
포항물회,NOT_RECORD,37.6207410210947,126.918015242848,서울특별시 은평구 통일로83길 15-1 ,02-389-0989
수을관,NOT_RECORD,37.5620385899772,126.92546833092,서울특별시 마포구 동교로38길 19 2.5층,0507-1375-020
르빵(명동성당점),NOT_RECORD,37.563253,126.986832,서울특별시 중구 명동길 74 명동성당,02-3789-7545
커피냅로스터스(연남동),NOT_RECORD,37.5664284125218,126.920213302301,서울특별시 마포구 성미산로27길 70 ,02-332-4131
녹원쌈밥 연희점,NOT_RECORD,37.5724812434425,126.934145957025,서울특별시 서대문구 연희로25길 22 ,02-336-9483
이향,NOT_RECORD,37.5949649315205,126.994311844449,서울특별시 성북구 성북로26길 13 ,02-742-5525
엄나무집,NOT_RECORD,37.5731431789091,127.055948144138,서울특별시 동대문구 답십리로45길 4 ,02-2244-8563
보들이족발,NOT_RECORD,37.6182876349063,126.920924293549,서울특별시 은평구 연서로 230-10 , 0507-1429-7610
산들애건강밥상,NOT_RECORD,37.6561351230062,126.949238788923,서울특별시 은평구 대서문길 43-16 ,02-385-9693
산중다원,NOT_RECORD,37.6530647634943,126.942391284525,서울특별시 은평구 의상봉길 31 ,02-371-0707
소울,NOT_RECORD,37.5804589730862,126.97147451202,서울특별시 종로구 자하문로 50 하얀색 단독건물 1층,010-2203-5194
최다이닝,NOT_RECORD,37.5776259780911,126.8967400223,서울특별시 마포구 성암로13길 7 2층,02-6351-0455
패티패티,NOT_RECORD,37.5462361417851,127.061612478688,서울특별시 성동구 아차산로13길 33 105호,010-8537-8292
이문동커피집크럼블로스터스,NOT_RECORD,37.5954715513459,127.057343593494,서울특별시 동대문구 이문로25길 39 ,070-8776-4147
합심,NOT_RECORD,37.5688537151032,126.965114852628,서울특별시 종로구 경교장길 35 경희궁자이 3단지 3120호,070-7778-5815
칠복상회로스터스,NOT_RECORD,37.6400936562983,127.025331073644,서울특별시 강북구 한천로139가길 15 ,02-999-4889
쿤시,NOT_RECORD,37.5566974700972,127.082668287716,서울특별시 광진구 용마산로1길 111 ,010-2540-8302
릴리언,NOT_RECORD,37.5373857118299,127.002909211408,서울특별시 용산구 한남대로27가길 15 ,02-6104-2045
죽마고돈,NOT_RECORD,37.5693628646266,126.985241260015,서울특별시 종로구 삼일대로17길 42-4 1~4층,02-737-9992
고치비,NOT_RECORD,37.579338125998,126.968933386219,서울특별시 종로구 필운대로 38 1층,070-8869-5776
한티옥(노원점),NOT_RECORD,37.6552787315469,127.061391730931,서울특별시 노원구 동일로 1414 9층 한티옥,0507-1328-2938
애호락,NOT_RECORD,37.5791598068788,126.986546213919,서울특별시 종로구 계동길 41 2층,02-742-8010
아소토,NOT_RECORD,37.5471374700642,126.914227747204,서울특별시 마포구 독막로2길 34 ,0507-1345-962
괴르츠,NOT_RECORD,37.544849,126.92581,서울특별시 마포구 토정로 136-13 우성빌딩 7층,02-336-1745
마차회집,NOT_RECORD,37.545739,126.928298,서울특별시 마포구 토정로 155 ,02-323-6735
16p,NOT_RECORD,37.6189867339093,127.046528885296,서울특별시 성북구 돌곶이로 220 꿈의숲코오롱하늘채아파트,02-797-6616
에잇올리,NOT_RECORD,37.5934613652406,127.053071208373,서울특별시 동대문구 경희대로6길 3-2 ,010-2924-2770
퍼스트에스프레소,NOT_RECORD,37.5860266549641,127.060543519699,서울특별시 동대문구 망우로18다길 28-4 ,02-2248-8237
제주미향해장,NOT_RECORD,37.5812760285375,127.0432339069,서울특별시 동대문구 경동시장로10길 46 1층,02-6949-3353
치플레,NOT_RECORD,37.562830316373,126.925644336395,서울특별시 마포구 동교로 262-9 1층 치플레,02-6949-1960
금성관나주곰탕,NOT_RECORD,37.5614253772141,126.97884383258,서울특별시 중구 남대문로 29 청남빌딩 1층,02-753-7898
엘샌드위치(종로점),NOT_RECORD,37.5750546858003,126.981766841584,서울특별시 종로구 율곡로4길 14 ,02-723-2589
명인등심(마포직영점),NOT_RECORD,37.5470013514751,126.953756813538,서울특별시 마포구 마포대로 144 마포T타운 지하1층,02-6367-2588
명인등심(상암직영점),NOT_RECORD,37.5788467040194,126.894766919894,서울특별시 마포구 매봉산로2길 7 ,0507-1437-7828
키니베이크샵,NOT_RECORD,37.6367256908892,127.030274643553,서울특별시 강북구 덕릉로41길 38 ,
보글,NOT_RECORD,37.5482787310534,126.922383191782,서울특별시 마포구 와우산로 39-14 ,0507-1446-5988
올리그,NOT_RECORD,37.5621675615769,126.924819321443,서울특별시 마포구 동교로38안길 8 1층,0507-1480-0803
서아당,NOT_RECORD,37.570140174614,127.006528555472,서울특별시 종로구 종로40길 18 ,010-3241-0602
제뉴어리피크닉,NOT_RECORD,37.5891411634006,127.004145823037,서울특별시 성북구 창경궁로43길 26 1층,0507-1302-5394
로스니버거,NOT_RECORD,37.5353719029351,126.98850987437,서울특별시 용산구 녹사평대로40나길 22 2층,070-8869-5986
올로,NOT_RECORD,37.536748544981,127.055580827958,서울특별시 성동구 둘레15길 22 ,02-6238-0110
리프레쉬먼트,NOT_RECORD,37.5508856180803,127.047450016708,서울특별시 성동구 상원길 77 ,070-7755-2023
코이누르 홍대점,NOT_RECORD,37.5530939528403,126.924353463531,서울특별시 마포구 와우산로 97 H.Pulse 6층 ,010-3952-6672
이태원불꽃,NOT_RECORD,37.5300171522212,126.997369499854,서울특별시 용산구 보광로 72 이태원 불꽃,02-797-8257
베짜,NOT_RECORD,37.5717838064719,126.92980791612,서울특별시 서대문구 증가로 42 ,02-6271-9876
스키야키201,NOT_RECORD,37.5493340295294,126.914746464014,서울특별시 마포구 양화로6길 10 ,010-8540-2865
어스름,NOT_RECORD,37.5810058040942,127.004735999074,서울특별시 종로구 동숭2길 7-4 ,050714469314
진도식당,NOT_RECORD,37.603181,127.066938,서울특별시 동대문구 신이문로 43 ,02-966-4411
호가양꼬치,NOT_RECORD,37.5728587105399,126.980753673658,서울특별시 종로구 율곡로4길 66 삼성빌딩,02-736-7277
익선잡방,NOT_RECORD,37.5733847269877,126.989442582006,서울특별시 종로구 수표로28길 17-21 ,02-765-3418
야스노야지로,NOT_RECORD,37.5384919166036,126.968080121147,서울특별시 용산구 백범로87길 19 ,02-777-0778
목포세발낙지,NOT_RECORD,37.5896722345334,126.942486262935,서울특별시 서대문구 통일로 451-41 ,02-391-7992
나무그늘,NOT_RECORD,37.560561,126.92345,서울특별시 마포구 연남로 8 ,02-322-0985
오스테리아오라,NOT_RECORD,37.55637776249428,126.91437650727966,서울특별시 마포구 잔다리로 105 잇다빌딩,010-9163-0415
토오베,NOT_RECORD,37.5753439185471,126.983707418012,서울특별시 종로구 인사동길 62-4 ,010-3274-7720
커피를사랑한소믈리애,NOT_RECORD,37.553966335752,126.976689126185,서울특별시 용산구 소월로2길 23 1층,02-3789-0448
엉클조 소시지 전문점,NOT_RECORD,37.554819,126.976938,서울특별시 용산구 소월로 56 ,02-757-1750
문바,NOT_RECORD,37.55063,127.001105,"서울특별시 중구 장충단로 60 반얀트리클럽앤스파 서울 호텔동 20, 21층",02-2250-8151
그라넘다이닝라운지,NOT_RECORD,37.550048,127.000413,서울특별시 중구 장충단로 60 반얀트리클럽앤스파 서울 호텔동 1층,02-2250-8000
해방촌노아,NOT_RECORD,37.545326,126.984741,서울특별시 용산구 신흥로 98 ,02-796-0804
베제투스,NOT_RECORD,37.5437080982902,126.987265580732,서울특별시 용산구 신흥로 59 ,070-8824-5959
데칼코마니,NOT_RECORD,37.5452666383266,126.984899408877,서울특별시 용산구 신흥로 97-4 1층 데칼코마니,010-7466-0815
필리스,NOT_RECORD,37.54139745696838,126.98701013679425,서울특별시 용산구 신흥로 31-1 ,02-749-0679
카사블랑카,NOT_RECORD,37.541642540800325,126.98711872066315,서울특별시 용산구 신흥로 35 ,02-797-8367
윤주당,NOT_RECORD,37.5453534474955,126.98597835382,서울특별시 용산구 신흥로 81-1 ,070-8151-5765
르몽블랑,NOT_RECORD,37.5449087560253,126.984857160188,서울특별시 용산구 신흥로 99-4 ,
오랑오랑,NOT_RECORD,37.545062,126.985011,서울특별시 용산구 소월로20길 26-14 ,02-3789-7007
자코비버거,NOT_RECORD,37.541773,126.987402,서울특별시 용산구 신흥로 38 ,02-3785-0433
루트에브리데이,NOT_RECORD,37.537354482947876,126.99995474159623,서울특별시 용산구 이태원로55가길 26-4 2층,02-797-9505
소문,NOT_RECORD,37.5261784599345,126.99911759280263,서울특별시 용산구 장문로 85 ,02-797-7292 
살롱프라이드,NOT_RECORD,37.539741,126.989567,서울특별시 용산구 회나무로13길 10 ,010-5413-8251
스탑사인,NOT_RECORD,37.5337184260957,126.991053639979,서울특별시 용산구 이태원로16길 10 ,070-4276-1004
롸카두들내쉬빌핫치킨,NOT_RECORD,37.5348743233902,126.988037242342,서울특별시 용산구 녹사평대로40나길 9 ,02-798-3456
찬스브로스,NOT_RECORD,37.53751,126.987,서울특별시 용산구 녹사평대로 222-1 ,02-790-6353
빌라드라비노,NOT_RECORD,37.53363483407724,126.99133344614759,서울특별시 용산구 이태원로16길 15 ,02-792-6506 
비스트로프란,NOT_RECORD,37.5357148391553,127.000843824463,서울특별시 용산구 이태원로54길 58-5 2층,070-4175-4430
콘하스한남,NOT_RECORD,37.5368522490066,126.99803840079,서울특별시 용산구 이태원로55나길 22 ,02-790-0792
구스테이크733,NOT_RECORD,37.53767,126.994902,서울특별시 용산구 이태원로27길 101 ,02-794-7339
텐카이,NOT_RECORD,37.539511,126.997685,서울특별시 용산구 소월로 322 그랜드하얏트서울 지하1층,02-799-8164
오리지널팬케이크하우스(이태원점),NOT_RECORD,37.5345988793062,126.990989609661,서울특별시 용산구 이태원로 153 ,02-795-7481
문타로,NOT_RECORD,37.53548,126.9993,서울특별시 용산구 이태원로 230-1 ,02-796-7232
테이크아웃드로잉,NOT_RECORD,37.53925,126.9874,서울특별시 용산구 녹사평대로 244 ,02-790-2637
앤트러사이트(한남점),NOT_RECORD,37.5361092100338,127.000163832697,서울특별시 용산구 이태원로 240 ,
시골밥상,NOT_RECORD,37.5361335360386,126.999484515185,서울특별시 용산구 이태원로 235 ,02-793-5390
써머레인,NOT_RECORD,37.5363596860333,126.999266710454,서울특별시 용산구 이태원로55가길 49 ,02-792-8114 
우라만,NOT_RECORD,37.5432350979953,126.990379231288,서울특별시 용산구 소월로38길 25 ,02-797-8399
이태원단골집,NOT_RECORD,37.5340576174873,126.993228622588,서울특별시 용산구 보광로59길 14-1 ,010-9415-2107
천상,NOT_RECORD,37.535627,126.99882,서울특별시 용산구 이태원로 227 ,02-749-2224
도이치하우스,NOT_RECORD,37.533267,127.003036,서울특별시 용산구 대사관로 46 서울빌딩,02-794-1313
술꼬마,NOT_RECORD,37.5344770924284,126.989181846842,서울특별시 용산구 녹사평대로40길 59-1 ,070-8861-6517
라운지씨엘,NOT_RECORD,37.5424239363147,126.993067753562,서울특별시 용산구 소월로44가길 3 2층,02-6401-0533
로즈앤크라운,NOT_RECORD,37.534684,126.991968,서울특별시 용산구 이태원로19길 6 2층,010-7532-5484
키에리(이태원점),NOT_RECORD,37.5333682588505,126.99317992158008,서울특별시 용산구 이태원로26길 16-8 ,02-798-3441
앙카라피크닉,NOT_RECORD,37.5343,126.994271,서울특별시 용산구 이태원로 182 ,02-793-2550
그랑블루,NOT_RECORD,37.5408,126.9918,서울특별시 용산구 회나무로13가길 40 ,02-790-5715
코파카바나그릴,NOT_RECORD,37.5339523956018,126.989697279291,서울특별시 용산구 이태원로 142-1 ,02-796-1660
커피오브콜스,NOT_RECORD,37.5323221756006,126.994505998962,서울특별시 용산구 보광로 107 1층 커피오브콜스,02-749-5552
아그라,NOT_RECORD,37.53456,126.991,서울특별시 용산구 이태원로 153 덕흥빌딩 지하1층,02-797-7262 
단풍나무집(이태원점),NOT_RECORD,37.5351061429632,126.993789036287,서울특별시 용산구 이태원로27가길 26 해밀톤호텔 별관,02-790-7977
워터스트리트,NOT_RECORD,37.54102,126.989857,서울특별시 용산구 회나무로13가길 3-9 ,02-720-0789
오띠젤리,NOT_RECORD,37.5332553510698,126.989357050611,서울특별시 용산구 녹사평대로 168-6 1층,02-790-2909
타코아미고,NOT_RECORD,37.53367,126.994,서울특별시 용산구 보광로 123 ,02-749-5253
야키도리고우이태원본점,NOT_RECORD,37.53489272897758,126.99278604758558,서울특별시 용산구 이태원로27가길 45 ,02-794-7088
케르반레스토랑,NOT_RECORD,37.53436667407795,126.99537025000907,서울특별시 용산구 이태원로 192 ,02-792-4767
아우프글렛,NOT_RECORD,37.5368986582972,127.001419068613,서울특별시 용산구 이태원로54가길 20 ,010-9832-2011
라이너스바베큐,NOT_RECORD,37.53378967346722,126.98968157512934,서울특별시 용산구 이태원로 136-13 ,02-790-2920
마라토끼,NOT_RECORD,37.535163025039715,126.99271813593,서울특별시 용산구 이태원로23길 16 2층,070-7576-2316 
네키드윙즈,NOT_RECORD,37.5338080297208,126.98940867735,서울특별시 용산구 녹사평대로 174-11 ,070-4078-7411
라플랑끄,NOT_RECORD,37.533309,126.993509,서울특별시 용산구 이태원로26길 26 ,070-7719-3010 
꾸띠자르당,NOT_RECORD,37.533406,126.994589,서울특별시 용산구 보광로 120 ,02-796-5072
쏭타이,NOT_RECORD,37.5337282690125,126.992681617899,서울특별시 용산구 이태원로20가길 7-2 ,02-798-2495
모멘토스,NOT_RECORD,37.540971,126.990627,서울특별시 용산구 회나무로13가길 19 ,02-6205-9302
타파스바,NOT_RECORD,37.534826,126.992534,서울특별시 용산구 이태원로27가길 49 ,02-790-0799
일호식,NOT_RECORD,37.533750460636796,127.00214967072546,서울특별시 용산구 대사관로 35 ,02-794-2648
장진우식당,NOT_RECORD,37.540798,126.991794,서울특별시 용산구 회나무로13가길 40 ,010-2327-0407
쌀람베이커리,NOT_RECORD,37.533266,126.997554,서울특별시 용산구 우사단로10길 39 ,02-749-4323
야상해,NOT_RECORD,37.534806233454404,126.99279510729005,서울특별시 용산구 이태원로23길 6 ,02-749-8666
후렌드치킨,NOT_RECORD,37.539741,126.989567,서울특별시 용산구 회나무로13길 10 ,02-796-4642
베이비기네스,NOT_RECORD,37.534891197166,126.992784350599,서울특별시 용산구 이태원로27가길 45 ,02-6014-7177
아날로그소사이어티키친,NOT_RECORD,37.53061858167045,126.99791830066114,서울특별시 용산구 우사단로2길 19 ,010-5483-5001 
카페인신현리탭앤그릴,NOT_RECORD,37.5285655568387,126.993107501389,서울특별시 용산구 장문로 23 몬드리안서울이태원,070-4009-5849
안씨막걸리,NOT_RECORD,37.53858637966524,126.98740437904347,서울특별시 용산구 회나무로 3 1층,010-5172-2229
마메종394,NOT_RECORD,37.536480816948,126.989063208046,서울특별시 용산구 녹사평대로40나길 48-20 ,010-4023-7510
스탠딩커피,NOT_RECORD,37.5377376793044,126.986960421442,서울특별시 용산구 녹사평대로 224-1 ,02-794-0427
JJ마호니스,NOT_RECORD,37.53951,126.9977,서울특별시 용산구 소월로 322 그랜드하얏트서울 지하2층,02-799-8601
치즈플로,NOT_RECORD,37.536958,126.999428,서울특별시 용산구 이태원로49길 19 ,02-794-7010
님부스커피,NOT_RECORD,37.5326394973629,126.992649705982,서울특별시 용산구 녹사평대로26가길 19 ,02-796-7676
클레오,NOT_RECORD,37.5285655568387,126.993107501389,서울특별시 용산구 장문로 23 몬드리안 서울 이태원 1층,02-2076-2050
누랑즈뉘,NOT_RECORD,37.53745124548869,126.98864917768203,서울특별시 용산구 녹사평대로46길 34-2 ,02-797-0709
뮤땅,NOT_RECORD,37.5335266626566,127.001449439441,서울특별시 용산구 대사관로12길 4-2 2층,070-7776-3052
디엘리,NOT_RECORD,37.53379,126.9894,서울특별시 용산구 녹사평대로 174-11 ,02-792-5030
커피나인(이태원점),NOT_RECORD,37.5363039460928,126.987224071304,"서울특별시 용산구 녹사평대로 208-1 파크뷰 1층, 2층",02-797-9991 
동아냉면(이태원점),NOT_RECORD,37.533676,127.00325,서울특별시 용산구 대사관로 45-1 ,02-796-7442
트로이카,NOT_RECORD,37.53407458578776,126.99224304933345,서울특별시 용산구 이태원로 164-1 5층,02-797-7724
술탄케밥,NOT_RECORD,37.534001,126.994207,서울특별시 용산구 보광로 126 ,02-749-3890
바바라스키친,NOT_RECORD,37.5349726865538,127.00055892351,서울특별시 용산구 대사관로5길 17 ,070-8834-0908
장강중류,NOT_RECORD,37.5347110796635,126.989152622402,서울특별시 용산구 이태원로 143-28 2층,010-6727-0329 
이태원주식,NOT_RECORD,37.533186066559,126.990439241797,서울특별시 용산구 녹사평대로32길 36 ,010-7791-4193
까사684,NOT_RECORD,37.535199,127.00096,서울특별시 용산구 이태원로54길 74 ,02-790-6840
라비앙코코,NOT_RECORD,37.5344587516142,126.988643974163,서울특별시 용산구 녹사평대로40길 51 ,010-4070-9477
위긴티식스,NOT_RECORD,37.53354829652798,126.99078585730906,서울특별시 용산구 이태원로14길 19 ,070-8869-2316
케냐 키암부,NOT_RECORD,37.539807,126.995599,서울특별시 용산구 회나무로44길 36 주한 케냐대사관 1층,02-798-0020
비손,NOT_RECORD,37.537639,126.994816,서울특별시 용산구 이태원로27길 101 ,02-790-0479
마틸다,NOT_RECORD,37.540798,126.991794,서울특별시 용산구 회나무로13가길 40 ,02-790-5714
타지팰리스,NOT_RECORD,37.53368,126.9954,서울특별시 용산구 우사단로 39 2층,02-790-5786
테라스,NOT_RECORD,37.539442,126.99732,서울특별시 용산구 소월로 322 그랜드하얏트서울 호텔 1층,02-799-8166
미드나잇마켓,NOT_RECORD,37.5340841745651,126.994534381258,서울특별시 용산구 보광로60길 7 카나빌딩 2층,02-3785-1226
서울루덴스,NOT_RECORD,37.540391,126.994238,서울특별시 용산구 회나무로 69 지하 1층,02-795-4151
수르기,NOT_RECORD,37.5360290203821,127.000409807593,서울특별시 용산구 이태원로42길 32 ,02-6053-0462 
아르모니움,NOT_RECORD,37.533806,127.001723,서울특별시 용산구 대사관로 33 ,02-792-3972
소하,NOT_RECORD,37.533403,127.001685,서울특별시 용산구 대사관로12길 3 ,02-792-5055
한도니,NOT_RECORD,37.53291,126.995366,서울특별시 용산구 우사단로 31 ,02-794-0092
바아,NOT_RECORD,37.5355258112657,127.000476672498,서울특별시 용산구 이태원로54길 58-13 ,070-4032-8198
스페인클럽(이태원점),NOT_RECORD,37.534549,126.998127,서울특별시 용산구 이태원로 216 ,02-795-1118
흥미식당,NOT_RECORD,37.5347412197711,126.991995086031,서울특별시 용산구 이태원로19길 6 ,02-790-1256
프로스트,NOT_RECORD,37.535071,126.993765,서울특별시 용산구 이태원로27가길 26 헤밀턴호텔 별관 1층,02-796-6854
글램,NOT_RECORD,37.535071,126.993765,서울특별시 용산구 이태원로27가길 26 해밀톤호텔 별관,02-796-6853
파티세리폰드,NOT_RECORD,37.5368027102701,127.000015614034,서울특별시 용산구 이태원로 243 대부빌딩 2층,02-6949-1665
카우리,NOT_RECORD,37.5397629769285,126.996240829219,서울특별시 용산구 소월로 322 하얏트호텔 LL층 332,02-799-8271
테판,NOT_RECORD,37.5397629769285,126.996240829219,서울특별시 용산구 소월로 322 그랜드하얏트호텔,02-799-8272
알페도,NOT_RECORD,37.534279444277,126.99323505159,서울특별시 용산구 이태원로 174 ,02-794-1134
페르시안랜드,NOT_RECORD,37.533631,126.997058,서울특별시 용산구 우사단로10가길 10 ,02-797-7109
어메이징타이,NOT_RECORD,37.535925,126.999943,서울특별시 용산구 이태원로 238-1 3층,02-796-7377
다채(동빙고점),NOT_RECORD,37.5247001790381,126.993300398993,서울특별시 용산구 녹사평대로 66 용산푸르지오파크타운,02-792-9233
일키아쏘,NOT_RECORD,37.5346547281027,126.988735928836,서울특별시 용산구 녹사평대로40길 55-7 ,02-792-5588
세미계,NOT_RECORD,37.5334210600049,127.001833208504,서울특별시 용산구 대사관로 34 ,02-792-2155
공기,NOT_RECORD,37.5361993984782,126.999342744969,서울특별시 용산구 이태원로45길 4 ,02-797-7753
교양식사,NOT_RECORD,37.5359194593876,126.999916273557,서울특별시 용산구 이태원로 238 ,010-7601-4041
명동회관,NOT_RECORD,37.562638,126.982436,서울특별시 중구 명동2길 16 ,02-757-7781
원조한치,NOT_RECORD,37.56449,126.9846,서울특별시 중구 명동7길 14-5 ,02-755-4163
라따블,NOT_RECORD,37.564145,126.98295,서울특별시 중구 남대문로 78 IBIS앰버서더호텔 19층,02-6361-8120
다파비오,NOT_RECORD,37.559309159981304,126.9857484752118,서울특별시 중구 퇴계로20길 20 ,02-771-3328
원조남산왕돈까스,NOT_RECORD,37.557194,126.986083,서울특별시 중구 소파로 107 ,02-755-3370
커피쉬,NOT_RECORD,37.5584172427962,126.987142769841,서울특별시 중구 소파로 125 ,02-318-7728
커피앤틱,NOT_RECORD,37.557094,126.985791,서울특별시 중구 소파로 103 ,02-752-9300
오다리집,NOT_RECORD,37.561393,126.983444,"서울특별시 중구 명동8나길 28 2,3층",02-778-6767
룸201,NOT_RECORD,37.5606709890002,126.986273829589,서울특별시 중구 퇴계로 130 프린스호텔 2층,02-752-1964
충무김밥,NOT_RECORD,37.5634197792853,126.985035755931,서울특별시 중구 명동10길 8 ,02-755-8488
뱅커스클럽바이반얀트리 ,NOT_RECORD,37.5650216235093,126.985460003108,서울특별시 중구 명동11길 19 16층 뱅커스 클럽 바이 반얀트리,02-3705-5111
향미명동점,NOT_RECORD,37.56212,126.9819,서울특별시 중구 남대문로 52-5 ,02-773-8835
아트몬스터(명동점),NOT_RECORD,37.5605071691249,126.985368298373,서울특별시 중구 퇴계로18길 2 2~3층,02-752-9990
크림시크,NOT_RECORD,37.5643525309057,126.983969236251,서울특별시 중구 명동7길 13 명동증권빌딩 1층 ,02-779-9271
삼호정,NOT_RECORD,37.559513,126.984069,서울특별시 중구 퇴계로16길 34 ,02-779-3555
흑산도,NOT_RECORD,37.563246,126.985013,서울특별시 중구 명동8길 11-6 ,02-778-6285
너비집,NOT_RECORD,37.565491,126.983762,서울특별시 중구 명동9길 37-8 ,02-756-4030
사유의서재(남산점),NOT_RECORD,37.5596783143009,126.985880372497,서울특별시 중구 퇴계로20길 13 플라스크빌딩 3층,0507-1319-0957
명동해물탕어머니집,NOT_RECORD,37.563166,126.985083,서울특별시 중구 명동8길 11-6 ,02-776-3896
레오니다스명동점,NOT_RECORD,37.563814,126.985804,서울특별시 중구 명동길 62 재원빌딩 1층,02-318-1312 
타이가든(명동점),NOT_RECORD,37.56341011693503,126.98288636707568,서울특별시 중구 명동길 14 Noon Square 6층, 02-754-3005
남산설렁탕,NOT_RECORD,37.556741,126.984914,서울특별시 중구 소파로 91 ,02-777-3959
진사댁(명동점),NOT_RECORD,37.563422,126.98408,서울특별시 중구 명동길 30-1 ,02-774-9605
명동할머니국수,NOT_RECORD,37.5646259701011,126.984546206216,서울특별시 중구 명동9길 17-3 ,02-778-2705
명화당,NOT_RECORD,37.562555,126.983944,서울특별시 중구 명동4길 30 ,02-777-7317
백제삼계탕,NOT_RECORD,37.563345,126.984085,서울특별시 중구 명동8길 8-10 ,02-776-3267
명동부대찌개황기족발,NOT_RECORD,37.564103,126.983752,서울특별시 중구 명동길 25-7 ,02-752-6800
남산골산채집,NOT_RECORD,37.55682,126.9852,서울특별시 중구 소파로 93 ,02-754-1978
란주라미엔,NOT_RECORD,37.56096650359068,126.98213992676158,서울특별시 중구 소공로 64 동남빌딩 1층,02-779-4800
홍만당,NOT_RECORD,37.563161726011735,126.98497355578199,서울특별시 중구 명동8길 11-6 ,02-777-4422 
쯔루하시후게츠,NOT_RECORD,37.562802,126.985016,서울특별시 중구 명동8길 21-5 ,02-3789-5920
오우가,NOT_RECORD,37.5616935654071,126.987397434068,서울특별시 중구 명동8가길 42 ,02-753-7533
콤포타블남산,NOT_RECORD,37.5492487556727,126.983354709318,서울특별시 용산구 두텁바위로60길 49 대원정사,070-8804-6502
포엠,NOT_RECORD,37.56308,126.9837,서울특별시 중구 명동4길 13 ,02-776-5003
할머니집,NOT_RECORD,37.565599,126.983694,서울특별시 중구 명동3길 42 ,02-757-4167
대나무집,NOT_RECORD,37.558936,126.986102,서울특별시 중구 퇴계로20길 29 ,02-753-7271
미나미야마,NOT_RECORD,37.557213,126.985943,서울특별시 중구 소파로 105 ,070-4007-6696
블루보틀(명동점),NOT_RECORD,37.5634116488196,126.98288772495,서울특별시 중구 명동길 14 Noon Square,1533-6906
세이슌,NOT_RECORD,37.5651679495987,126.984095832147,서울특별시 중구 명동9길 31 지하 1층,02-310-9309
중심(명동점),NOT_RECORD,37.5617094550686,126.982674651463,서울특별시 중구 명동8나길 38 르메르디앙,02-777-8996
로투스,NOT_RECORD,37.5636568796353,126.987804798513,서울특별시 중구 삼일대로9길 6 명성빌딩,0507-1343-3908
마노디셰프(명동점),NOT_RECORD,37.56341,126.983737,서울특별시 중구 명동길 26 유네스코회관,02-777-7047
뚱뚱이족발,NOT_RECORD,37.559769,126.985776,서울특별시 중구 퇴계로20길 9 ,02-778-8998
딘타이펑,NOT_RECORD,37.5643,126.984116,서울특별시 중구 명동7길 13 명동증권빌딩 2층,02-3789-2778
안동찜닭,NOT_RECORD,37.563637,126.985316,서울특별시 중구 명동10길 3 ,02-310-9233
소공분식,NOT_RECORD,37.5629034813413,126.982240538252,서울특별시 중구 남대문로 64-1 ,02-774-0331
유가네(명동1호점),NOT_RECORD,37.5633439566333,126.985364800771,서울특별시 중구 명동10길 11 ,02-3789-3392
다도해물집,NOT_RECORD,37.5633577545593,126.98546745716,서울특별시 중구 명동10길 7-4 ,02-754-9749
아미소,NOT_RECORD,37.562408,126.984106,서울특별시 중구 명동4길 25 포라리스 5층,02-756-3317
묵호회집,NOT_RECORD,37.56566,126.984,서울특별시 중구 명동9길 43 ,02-779-2280
가무,NOT_RECORD,37.562861,126.983166,서울특별시 중구 명동4길 16 ,02-776-3141
미쉬매쉬,NOT_RECORD,37.5796581438292,126.989143953986,서울특별시 종로구 창덕궁길 47 ,02-6465-2211
동문우동전문점,NOT_RECORD,37.518091,126.978714,서울특별시 용산구 이촌로 290 점보상가 1층,02-798-6895
한강치킨,NOT_RECORD,37.520366,126.974264,서울특별시 용산구 이촌로75길 12 ,02-795-2668
니와,NOT_RECORD,37.5207802377583,126.974503436949,서울특별시 용산구 이촌로75길 22 ,02-790-0917
스마일이촌떡볶이,NOT_RECORD,37.520789,126.974946,서울특별시 용산구 이촌로65가길 72 동인상가 102호,02-749-5507
카펜터스,NOT_RECORD,37.519983,126.974159,서울특별시 용산구 이촌로 245 로얄맨숀아파트,02-798-2773
야미당,NOT_RECORD,37.5247022357875,126.977740246542,서울특별시 용산구 서빙고로 137 별A동 지상 1층,02-792-7002
옛집,NOT_RECORD,37.524022,126.968607,서울특별시 용산구 서빙고로 38-1 ,02-793-5955
쉐이드트리,NOT_RECORD,37.5200049152766,126.969871897307,서울특별시 용산구 이촌로64길 24 ,02-792-3788
풍미향,NOT_RECORD,37.523334,126.969609,서울특별시 용산구 한강대로14가길 18 ,02-749-8593
스노우볼,NOT_RECORD,37.5208539475824,126.974960986659,서울특별시 용산구 이촌로65가길 72 동인상가 107호,02-749-7491
봉자네,NOT_RECORD,37.521138,126.967331,서울특별시 용산구 이촌로 182 ,02-790-8636
열해,NOT_RECORD,37.519651,126.973888,서울특별시 용산구 이촌로 248 한강맨션 상가 2층,02-793-1188
차이옌,NOT_RECORD,37.518184,126.977748,서울특별시 용산구 이촌로88길 8 ,02-792-0872
르미야,NOT_RECORD,37.5205101179976,126.974928635952,서울특별시 용산구 이촌로77길 19 1층 LEMIYA,02-797-9135
나무와화덕피자집,NOT_RECORD,37.520379,126.974271,서울특별시 용산구 이촌로75길 12 ,02-749-1177
경일옥,NOT_RECORD,37.52065,126.9677,서울특별시 용산구 이촌로54길 13 지하 1층,02-797-6700
하나스시,NOT_RECORD,37.52015,126.967663,서울특별시 용산구 이촌로64길 61 장미아파트,02-793-7733
섬집,NOT_RECORD,37.524406974427,126.965380477811,서울특별시 용산구 한강대로14가길 3 섬집,02-794-0087
동강,NOT_RECORD,37.52114,126.9673,서울특별시 용산구 이촌로 182 풍원상가 114호,02-794-1033
와세다야,NOT_RECORD,37.5180294947051,126.978694898683,서울특별시 용산구 이촌로88길 3 점보아파트,02-796-0608
솜씨이촌,NOT_RECORD,37.520745,126.975216,서울특별시 용산구 이촌로65가길 78 ,02-793-3888
스즈란테이,NOT_RECORD,37.519983,126.974159,서울특별시 용산구 이촌로 245 로얄상가C동 지하 1층,02-749-5324
광동포차,NOT_RECORD,37.55048,126.9223,서울특별시 마포구 잔다리로 5-1 ,02-3142-1224
더심플한테이블,NOT_RECORD,37.5515008030203,126.91395024016,서울특별시 마포구 양화로 45 메세나폴리스,02-3144-7076
히게쯔라,NOT_RECORD,37.550554366727454,126.91039972882957,서울특별시 마포구 양화로1길 42 엘타워,0231444883
퓨전선술집,NOT_RECORD,37.54942,126.91248,서울특별시 마포구 월드컵로1길 7 ,02-335-4764
참숯불풍천장어,NOT_RECORD,37.54907,126.90937,서울특별시 마포구 포은로 9 ,02-335-1693
잇텐고,NOT_RECORD,37.549208,126.909219,서울특별시 마포구 포은로 11 ,02-337-7715
스시히카리,NOT_RECORD,37.5515008030203,126.91395024016,서울특별시 마포구 양화로 45 메세나폴리스 상가 1층,010-2698-6982
향남추어탕,NOT_RECORD,37.5505685962739,126.911226502198,서울특별시 마포구 양화로3길 37 ,02-337-4649
은하루,NOT_RECORD,37.5500292272642,126.909640793106,서울특별시 마포구 월드컵로3길 56 ,02-322-4508
커넥츠커피(망원점),NOT_RECORD,37.5549409780941,126.910417677487,서울특별시 마포구 월드컵로11길 8 1층  ,02-6439-0502
라오삐약,NOT_RECORD,37.5527328101125,126.90443785635,서울특별시 마포구 희우정로10길 5 , 02-322-7735
딥블루레이크로스터리,NOT_RECORD,37.5551389609282,126.900127651583,서울특별시 마포구 희우정로 117-1 ,010-4283-8532
세이버스커피,NOT_RECORD,37.6050587642973,127.030990445726,서울특별시 성북구 종암로 167 동일하이빌뉴시티 1층 122호,02-522-0892
바스크,NOT_RECORD,37.608603010858616,127.02254657671214,서울특별시 성북구 삼양로9길 10-2 ,02-941-5168 
스위스,NOT_RECORD,37.611537,126.978596,서울특별시 종로구 평창길 349 ,02-394-5003
브라운헤이븐 ,NOT_RECORD,37.6155321681138,127.03187440283,서울특별시 강북구 도봉로10라길 20 2종근린생활시설 1층,02-6013-1978
몽모랑시제과점,NOT_RECORD,37.6066,126.9666,서울특별시 종로구 평창11길 12 ,02-379-0408
이식당,NOT_RECORD,37.606936694852244,126.97150143674891,서울특별시 종로구 평창문화로 94 ,02-379-3551
키미아트,NOT_RECORD,37.612901,126.974304,서울특별시 종로구 평창30길 47 ,02-394-6441
타입커피,NOT_RECORD,37.6087083156333,127.056880012905,서울특별시 성북구 화랑로32길 38 ,02-6956-3238
로드샌드위치(미아사거리역점),NOT_RECORD,37.6146533152425,127.029199887717,서울특별시 강북구 도봉로13가길 5 ,1660-2363
강촌쌈밥,NOT_RECORD,37.610772,126.97468,서울특별시 종로구 평창30길 9 ,02-395-6467
어촌,NOT_RECORD,37.6203849302826,127.028173848583,서울특별시 강북구 도봉로 129 동진빌딩 1층,02-2602-0085
옛날민속집,NOT_RECORD,37.60649,126.9603,서울특별시 종로구 진흥로 469 ,02-379-6100
커인스커피,NOT_RECORD,37.6005726967226,127.033435171205,서울특별시 성북구 종암로21길 42 ,0507-1417-1395
한우향기,NOT_RECORD,37.6123,126.9561,서울특별시 종로구 비봉길 45 ,02-379-2001
